mavpackettype,TimeUS,I,GyrX,GyrY,GyrZ,AccX,AccY,AccZ,EG,EA,T,GH,AH,GHz,AHz,Type,Status,GMS,GWk,NSats,HDop,Lat,Lng,Alt,Spd,GCrs,VZ,Yaw,U
IMU,9142543,0,0.04784272611141205,7.387649384327233e-05,0.0029259636066854,9.216684341430664,0.026211809366941452,-3.353260040283203,0.0,0.0,25.108304977416992,1.0,1.0,999.0,999.0,IMU,,,,,,,,,,,,,
IMU,9142543,1,0.04785790294408798,-0.0001544418919365853,0.0030610074754804373,9.21843433380127,0.02752000465989113,-3.3547403812408447,0.0,0.0,25.108240127563477,1.0,1.0,759.0,799.0,IMU,,,,,,,,,,,,,
IMU,9162543,0,0.07493697851896286,-6.342199048958719e-05,0.0045153191313147545,9.216866493225098,-0.07150398194789886,-3.35465407371521,0.0,0.0,25.10963249206543,1.0,1.0,999.0,999.0,IMU,,,,,,,,,,,,,
IMU,9162543,1,0.07528672367334366,-8.645984780741856e-05,0.0046296254731714725,9.2177734375,-0.06511241942644119,-3.3541553020477295,0.0,0.0,25.10956573486328,1.0,1.0,759.0,799.0,IMU,,,,,,,,,,,,,
IMU,9182543,0,0.058189112693071365,-0.00010873637802433223,0.0035008166451007128,9.21782112121582,-0.10534626245498657,-3.3561770915985107,0.0,0.0,25.110958099365234,1.0,1.0,999.0,999.0,IMU,,,,,,,,,,,,,
IMU,9182543,1,0.05868465453386307,6.745861901436001e-05,0.0035523688420653343,9.218332290649414,-0.1060694083571434,-3.356860637664795,0.0,0.0,25.110891342163086,1.0,1.0,759.0,799.0,IMU,,,,,,,,,,,,,
IMU,9202543,0,0.04079384729266167,-3.740795364137739e-05,0.0024884650483727455,9.216975212097168,-0.10472794622182846,-3.3567652702331543,0.0,0.0,25.11228370666504,1.0,1.0,999.0,999.0,IMU,,,,,,,,,,,,,
IMU,9202543,1,0.040407005697488785,-9.378703543916345e-05,0.0024597214069217443,9.217185020446777,-0.10421659797430038,-3.3569436073303223,0.0,0.0,25.11221694946289,1.0,1.0,759.0,799.0,IMU,,,,,,,,,,,,,
IMU,9222543,0,0.02409641072154045,3.786579327424988e-05,0.0015289110597223043,9.216468811035156,-0.1082240492105484,-3.3576040267944336,0.0,0.0,25.113609313964844,1.0,1.0,999.0,999.0,IMU,,,,,,,,,,,,,
IMU,9222543,1,0.023945476859807968,3.6335775803308934e-05,0.0014524271246045828,9.215356826782227,-0.10720424354076385,-3.35722017288208,0.0,0.0,25.113542556762695,1.0,1.0,759.0,799.0,IMU,,,,,,,,,,,,,
IMU,9242543,0,0.007202508859336376,0.00010906992247328162,0.0005100224516354501,9.21603775024414,-0.10920648276805878,-3.3573954105377197,0.0,0.0,25.11493492126465,1.0,1.0,999.0,999.0,IMU,,,,,,,,,,,,,
IMU,9242543,1,0.0072514982894063,4.702724618255161e-05,0.0005205209017731249,9.216224670410156,-0.10672521591186523,-3.35671067237854,0.0,0.0,25.1148681640625,1.0,1.0,759.0,799.0,IMU,,,,,,,,,,,,,
IMU,9262543,0,-0.009825577959418297,0.0002062207058770582,-0.00044350087409839034,9.215761184692383,-0.10839926451444626,-3.3573033809661865,0.0,0.0,25.116260528564453,1.0,1.0,999.0,999.0,IMU,,,,,,,,,,,,,
IMU,9262543,1,-0.009341935627162457,5.025897189625539e-05,-0.0003647063276730478,9.214597702026367,-0.1092643141746521,-3.3598246574401855,0.0,0.0,25.116193771362305,1.0,1.0,759.0,799.0,IMU,,,,,,,,,,,,,
IMU,9282543,0,-0.026776444166898727,0.00023472377506550401,-0.001434790319763124,9.215572357177734,-0.10737800598144531,-3.3572003841400146,0.0,0.0,25.117586135864258,1.0,1.0,999.0,999.0,IMU,,,,,,,,,,,,,
IMU,9282543,1,-0.026035984978079796,0.00010334198304917663,-0.0013710599159821868,9.217632293701172,-0.11014319956302643,-3.3582797050476074,0.0,0.0,25.11751937866211,1.0,1.0,759.0,799.0,IMU,,,,,,,,,,,,,
IMU,9302543,0,-0.04389233887195587,0.000273645855486393,-0.0024210766423493624,9.217415809631348,-0.10440460592508316,-3.3561313152313232,0.0,0.0,25.118911743164062,1.0,1.0,999.0,999.0,IMU,,,,,,,,,,,,,
IMU,9302543,1,-0.04420042410492897,0.0003352479252498597,-0.002364876912906766,9.217364311218262,-0.10347035527229309,-3.3563232421875,0.0,0.0,25.118844985961914,1.0,1.0,759.0,799.0,IMU,,,,,,,,,,,,,
IMU,9322543,0,-0.06115259975194931,0.000321073253871873,-0.0034582247026264668,9.215998649597168,-0.10002750903367996,-3.3574695587158203,0.0,0.0,25.120237350463867,1.0,1.0,999.0,999.0,IMU,,,,,,,,,,,,,
IMU,9322543,1,-0.06137837469577789,0.00045083221630193293,-0.003409745404496789,9.216745376586914,-0.10366586595773697,-3.3570735454559326,0.0,0.0,25.12017059326172,1.0,1.0,759.0,799.0,IMU,,,,,,,,,,,,,
IMU,9342543,0,-0.07314050942659378,0.0003545657091308385,-0.004129461478441954,9.2170991897583,-0.05037163943052292,-3.355329990386963,0.0,0.0,25.121562957763672,1.0,1.0,999.0,999.0,IMU,,,,,,,,,,,,,
IMU,9342543,1,-0.0729551762342453,0.00039427753654308617,-0.0042128898203372955,9.215912818908691,-0.049360599368810654,-3.352031707763672,0.0,0.0,25.121496200561523,1.0,1.0,759.0,799.0,IMU,,,,,,,,,,,,,
IMU,9362543,0,-0.03767465800046921,0.00016735975805204362,-0.0020812097936868668,9.217442512512207,0.02931484393775463,-3.353030204772949,0.0,0.0,25.122888565063477,1.0,1.0,999.0,999.0,IMU,,,,,,,,,,,,,
IMU,9362543,1,-0.038839325308799744,0.00011530691699590534,-0.002255440456792712,9.216575622558594,0.03260071203112602,-3.3523993492126465,0.0,0.0,25.122821807861328,1.0,1.0,759.0,799.0,IMU,,,,,,,,,,,,,
IMU,9382543,0,0.011433188803493977,0.00011382121010683477,0.0007811328396201134,9.21712875366211,0.03066159226000309,-3.3546552658081055,0.0,0.0,25.12421226501465,1.0,1.0,999.0,999.0,IMU,,,,,,,,,,,,,
IMU,9382543,1,0.009622536599636078,0.00011388660641387105,0.0007061149226501584,9.216594696044922,0.0320717878639698,-3.3564093112945557,0.0,0.0,25.124147415161133,1.0,1.0,759.0,799.0,IMU,,,,,,,,,,,,,
IMU,9402543,0,0.05845838785171509,7.053920126054436e-05,0.00348125328309834,9.216608047485352,0.020777855068445206,-3.3530776500701904,0.0,0.0,25.125537872314453,1.0,1.0,999.0,999.0,IMU,,,,,,,,,,,,,
IMU,9402543,1,0.058898743242025375,-2.050722650892567e-05,0.003576996736228466,9.217076301574707,0.02132718823850155,-3.356846809387207,0.0,0.0,25.125471115112305,1.0,1.0,759.0,799.0,IMU,,,,,,,,,,,,,
IMU,9422543,0,0.06950947642326355,-8.795461326371878e-05,0.0041914042085409164,9.216440200805664,-0.09037098288536072,-3.3550949096679688,0.0,0.0,25.126861572265625,1.0,1.0,999.0,999.0,IMU,,,,,,,,,,,,,
IMU,9422543,1,0.06936866790056229,-0.00014313909923657775,0.0043031866662204266,9.21762466430664,-0.08911391347646713,-3.355773448944092,0.0,0.0,25.12679672241211,1.0,1.0,759.0,799.0,IMU,,,,,,,,,,,,,
IMU,9442543,0,0.05052541196346283,-0.00027809716993942857,0.0031196842901408672,9.217793464660645,-0.10714981704950333,-3.3740949630737305,0.0,0.0,25.12818717956543,1.0,1.0,999.0,999.0,IMU,,,,,,,,,,,,,
IMU,9442543,1,0.050639569759368896,-0.00038954144110903144,0.003129204735159874,9.223221778869629,-0.10913702845573425,-3.6666407585144043,0.0,0.0,25.12812042236328,1.0,1.0,759.0,799.0,IMU,,,,,,,,,,,,,
IMU,9462543,0,0.03264177590608597,6.855180254206061e-05,0.0020312450360506773,9.216696739196777,-0.10624915361404419,-3.3602051734924316,0.0,0.0,25.129512786865234,1.0,1.0,999.0,999.0,IMU,,,,,,,,,,,,,
IMU,9462543,1,0.0330936536192894,4.6596174797741696e-05,0.002062077634036541,9.218461990356445,-0.10591019690036774,-3.36411714553833,0.0,0.0,25.129446029663086,1.0,1.0,759.0,799.0,IMU,,,,,,,,,,,,,
IMU,9482543,0,0.015807241201400757,9.890054207062349e-05,0.0010287301847711205,9.216856002807617,-0.10740227997303009,-3.355372190475464,0.0,0.0,25.130836486816406,1.0,1.0,999.0,999.0,IMU,,,,,,,,,,,,,
IMU,9482543,1,0.016580302268266678,5.9875990700675175e-05,0.00108346960041672,9.214742660522461,-0.10811576247215271,-3.3493142127990723,0.0,0.0,25.130769729614258,1.0,1.0,759.0,799.0,IMU,,,,,,,,,,,,,
IMU,9502543,0,-0.0011124424636363983,0.00016516556206624955,8.626313501736149e-05,9.215694427490234,-0.10767397284507751,-3.356806993484497,0.0,0.0,25.13216209411621,1.0,1.0,999.0,999.0,IMU,,,,,,,,,,,,,
IMU,9502543,1,-0.0012814289657399058,0.00010229236067971215,0.00011094943329226226,9.214351654052734,-0.1070089340209961,-3.3552513122558594,0.0,0.0,25.132095336914062,1.0,1.0,759.0,799.0,IMU,,,,,,,,,,,,,
IMU,9522543,0,-0.018151436001062393,0.00025307011674158275,-0.0009088062797673047,9.215887069702148,-0.10813704133033752,-3.35679030418396,0.0,0.0,25.133485794067383,1.0,1.0,999.0,999.0,IMU,,,,,,,,,,,,,
IMU,9522543,1,-0.018100684508681297,0.00020575322560034692,-0.0009699069778434932,9.216630935668945,-0.10640367120504379,-3.356959819793701,0.0,0.0,25.133420944213867,1.0,1.0,759.0,799.0,IMU,,,,,,,,,,,,,
IMU,9542543,0,-0.035285841673612595,0.0002809728612191975,-0.0019104343373328447,9.216361045837402,-0.105485700070858,-3.357478618621826,0.0,0.0,25.134809494018555,1.0,1.0,999.0,999.0,IMU,,,,,,,,,,,,,
IMU,9542543,1,-0.03513927385210991,0.00032577000092715025,-0.0019267761381343007,9.218017578125,-0.1042075902223587,-3.356599807739258,0.0,0.0,25.13474464416504,1.0,1.0,759.0,799.0,IMU,,,,,,,,,,,,,
IMU,9562543,0,-0.05241665244102478,0.00031199929071590304,-0.0028615694027394056,9.2166166305542,-0.1027422696352005,-3.3567233085632324,0.0,0.0,25.13613510131836,1.0,1.0,999.0,999.0,IMU,,,,,,,,,,,,,
IMU,9562543,1,-0.05188202112913132,0.0004232637002132833,-0.002788024488836527,9.217191696166992,-0.10321322083473206,-3.355496644973755,0.0,0.0,25.13606834411621,1.0,1.0,759.0,799.0,IMU,,,,,,,,,,,,,
IMU,9582543,0,-0.06956638395786285,0.00036734744207933545,-0.0039421431720256805,9.217886924743652,-0.09206918627023697,-3.3564746379852295,0.0,0.0,25.13745880126953,1.0,1.0,999.0,999.0,IMU,,,,,,,,,,,,,
IMU,9582543,1,-0.07001744955778122,0.0003233542083762586,-0.003908740356564522,9.219231605529785,-0.09342699497938156,-3.3562891483306885,0.0,0.0,25.137392044067383,1.0,1.0,759.0,799.0,IMU,,,,,,,,,,,,,
IMU,9602543,0,-0.0513211265206337,0.00016250326007138938,-0.0028398288413882256,9.216989517211914,0.01889818161725998,-3.3537135124206543,0.0,0.0,25.138782501220703,1.0,1.0,999.0,999.0,IMU,,,,,,,,,,,,,
IMU,9602543,1,-0.05099944770336151,8.733612776268274e-05,-0.0031337100081145763,9.218160629272461,0.01669452339410782,-3.351229190826416,0.0,0.0,25.138717651367188,1.0,1.0,759.0,799.0,IMU,,,,,,,,,,,,,
IMU,9622543,0,-0.0029632688965648413,0.00012941984459757805,1.673746737651527e-05,9.216713905334473,0.031439781188964844,-3.3529648780822754,0.0,0.0,25.140106201171875,1.0,1.0,999.0,999.0,IMU,,,,,,,,,,,,,
IMU,9622543,1,-0.0032107688020914793,-3.0444422009168193e-05,-0.0002786124823614955,9.217026710510254,0.0323135182261467,-3.3552565574645996,0.0,0.0,25.14004135131836,1.0,1.0,759.0,799.0,IMU,,,,,,,,,,,,,
IMU,9642543,0,0.04463612288236618,0.00011912432091776282,0.0027527092024683952,9.216818809509277,0.026041800156235695,-3.3524222373962402,0.0,0.0,25.14143180847168,1.0,1.0,999.0,999.0,IMU,,,,,,,,,,,,,
IMU,9642543,1,0.04371459409594536,1.7194985048263334e-05,0.002795337000861764,9.216514587402344,0.02701267972588539,-3.354386329650879,0.0,0.0,25.14136505126953,1.0,1.0,759.0,799.0,IMU,,,,,,,,,,,,,
IMU,9662543,0,0.0699644610285759,-6.254082836676389e-05,0.004205766133964062,9.217497825622559,-0.07089360803365707,-3.3548285961151123,0.0,0.0,25.14275360107422,1.0,1.0,999.0,999.0,IMU,,,,,,,,,,,,,
IMU,9662543,1,0.07012100517749786,-2.9711269235122018e-05,0.0042878687381744385,9.217610359191895,-0.06925541162490845,-3.3569741249084473,0.0,0.0,25.142688751220703,1.0,1.0,759.0,799.0,IMU,,,,,,,,,,,,,
IMU,9682543,0,0.05346348509192467,-4.576960054691881e-05,0.0032261416781693697,9.217601776123047,-0.1074107363820076,-3.3573172092437744,0.0,0.0,25.144079208374023,1.0,1.0,999.0,999.0,IMU,,,,,,,,,,,,,
IMU,9682543,1,0.05307222902774811,8.883995906217024e-05,0.003278234973549843,9.2166748046875,-0.10547405481338501,-3.35630202293396,0.0,0.0,25.144012451171875,1.0,1.0,759.0,799.0,IMU,,,,,,,,,,,,,
IMU,9702543,0,0.03503013402223587,5.1060080295428634e-05,0.0022046933881938457,9.217329025268555,-0.10597890615463257,-3.356675148010254,0.0,0.0,25.145401000976562,1.0,1.0,999.0,999.0,IMU,,,,,,,,,,,,,
IMU,9702543,1,0.03482317551970482,-8.662487380206585e-05,0.002104793908074498,9.218198776245117,-0.10529030114412308,-3.355286121368408,0.0,0.0,25.145336151123047,1.0,1.0,759.0,799.0,IMU,,,,,,,,,,,,,
IMU,9722543,0,0.017950639128684998,7.114587060641497e-05,0.0012318199733272195,9.216145515441895,-0.10626986622810364,-3.356464385986328,0.0,0.0,25.146726608276367,1.0,1.0,999.0,999.0,IMU,,,,,,,,,,,,,
IMU,9722543,1,0.017920812591910362,0.0002534465165808797,0.0011452464386820793,9.217893600463867,-0.10457725822925568,-3.3578715324401855,0.0,0.0,25.14665985107422,1.0,1.0,759.0,799.0,IMU,,,,,,,,,,,,,
IMU,9742543,0,0.0009321297402493656,0.00013342328020371497,0.00020791453425772488,9.21725082397461,-0.10775129497051239,-3.3567779064178467,0.0,0.0,25.14805030822754,1.0,1.0,999.0,999.0,IMU,,,,,,,,,,,,,
IMU,9742543,1,0.0011889627203345299,0.00022704311413690448,0.00018555959104560316,9.217686653137207,-0.10512887686491013,-3.356917381286621,0.0,0.0,25.14798355102539,1.0,1.0,759.0,799.0,IMU,,,,,,,,,,,,,
IMU,9762543,0,-0.016073772683739662,0.0002051651244983077,-0.0008329126867465675,9.218008041381836,-0.10705254971981049,-3.356837749481201,0.0,0.0,25.149372100830078,1.0,1.0,999.0,999.0,IMU,,,,,,,,,,,,,
IMU,9762543,1,-0.015433098189532757,0.00032837208709679544,-0.0009254312608391047,9.21695613861084,-0.10522335767745972,-3.3577303886413574,0.0,0.0,25.14930534362793,1.0,1.0,759.0,799.0,IMU,,,,,,,,,,,,,
IMU,9782543,0,-0.03313435614109039,0.0002115530805895105,-0.001822039601393044,9.216381072998047,-0.10579979419708252,-3.356940269470215,0.0,0.0,25.15069580078125,1.0,1.0,999.0,999.0,IMU,,,,,,,,,,,,,
IMU,9782543,1,-0.03327319398522377,0.00032008806010708213,-0.0019137033959850669,9.218740463256836,-0.10415096580982208,-3.3552911281585693,0.0,0.0,25.150630950927734,1.0,1.0,759.0,799.0,IMU,,,,,,,,,,,,,
IMU,9802543,0,-0.050370387732982635,0.0003656228072941303,-0.0027633407153189182,9.216547012329102,-0.1029684841632843,-3.357003927230835,0.0,0.0,25.152019500732422,1.0,1.0,999.0,999.0,IMU,,,,,,,,,,,,,
IMU,9802543,1,-0.05060969293117523,0.00033659941982477903,-0.0026986547745764256,9.218633651733398,-0.10351763665676117,-3.35701322555542,0.0,0.0,25.151954650878906,1.0,1.0,759.0,799.0,IMU,,,,,,,,,,,,,
IMU,9822543,0,-0.06749628484249115,0.0004377345321699977,-0.003787049325183034,9.2158784866333,-0.09212172031402588,-3.3548531532287598,0.0,0.0,25.153343200683594,1.0,1.0,999.0,999.0,IMU,,,,,,,,,,,,,
IMU,9822543,1,-0.06741663813591003,0.00041879137279465795,-0.0038142818957567215,9.216071128845215,-0.09495178610086441,-3.355266809463501,0.0,0.0,25.153276443481445,1.0,1.0,759.0,799.0,IMU,,,,,,,,,,,,,
IMU,9842543,0,-0.04933156818151474,0.0002033990458585322,-0.002748522674664855,9.21601676940918,0.018859388306736946,-3.3529820442199707,0.0,0.0,25.154664993286133,1.0,1.0,999.0,999.0,IMU,,,,,,,,,,,,,
IMU,9842543,1,-0.05061075836420059,0.00031391013180837035,-0.0027481557335704565,9.217331886291504,0.018360059708356857,-3.350963830947876,0.0,0.0,25.154598236083984,1.0,1.0,759.0,799.0,IMU,,,,,,,,,,,,,
IMU,9862543,0,-0.0009071591775864363,0.00018226372776553035,0.00012383403372950852,9.216343879699707,0.03156525269150734,-3.3528881072998047,0.0,0.0,25.155988693237305,1.0,1.0,999.0,999.0,IMU,,,,,,,,,,,,,
IMU,9862543,1,-0.002759784460067749,0.00019996464834548533,-6.559089524671435e-05,9.217514991760254,0.033786576241254807,-3.353581428527832,0.0,0.0,25.155921936035156,1.0,1.0,759.0,799.0,IMU,,,,,,,,,,,,,
IMU,9882543,0,0.04668005183339119,0.00014312268467620015,0.002847652416676283,9.216215133666992,0.0265020914375782,-3.353498697280884,0.0,0.0,25.157310485839844,1.0,1.0,999.0,999.0,IMU,,,,,,,,,,,,,
IMU,9882543,1,0.04736952483654022,0.00030818834784440696,0.002865494228899479,9.215228080749512,0.027822833508253098,-3.3548989295959473,0.0,0.0,25.157245635986328,1.0,1.0,759.0,799.0,IMU,,,,,,,,,,,,,
IMU,9902543,0,0.0665503665804863,-7.728260243311524e-05,0.003994901664555073,9.218055725097656,-0.08071232587099075,-3.355856418609619,0.0,0.0,25.158634185791016,1.0,1.0,999.0,999.0,IMU,,,,,,,,,,,,,
IMU,9902543,1,0.0665840432047844,-9.729267185321078e-05,0.0038508358411490917,9.217872619628906,-0.08074633777141571,-3.355238437652588,0.0,0.0,25.1585693359375,1.0,1.0,759.0,799.0,IMU,,,,,,,,,,,,,
IMU,9922543,0,0.04885716736316681,1.0350810043746606e-05,0.003045076970010996,9.217026710510254,-0.10533171892166138,-3.3583619594573975,0.0,0.0,25.159957885742188,1.0,1.0,999.0,999.0,IMU,,,,,,,,,,,,,
IMU,9922543,1,0.04897650331258774,-3.672529783216305e-05,0.003078549401834607,9.216920852661133,-0.10778821259737015,-3.3570966720581055,0.0,0.0,25.15989112854004,1.0,1.0,759.0,799.0,IMU,,,,,,,,,,,,,
IMU,9942543,0,0.03054654970765114,5.993965896777809e-05,0.001928224926814437,9.216633796691895,-0.10497220605611801,-3.356929302215576,0.0,0.0,25.161279678344727,1.0,1.0,999.0,999.0,IMU,,,,,,,,,,,,,
IMU,9942543,1,0.031105652451515198,0.0002085604501189664,0.0019980790093541145,9.21694278717041,-0.10486865043640137,-3.354879379272461,0.0,0.0,25.161212921142578,1.0,1.0,759.0,799.0,IMU,,,,,,,,,,,,,
IMU,9962543,0,0.01351887732744217,3.2803029171191156e-05,0.0009231179719790816,9.2160062789917,-0.10677199065685272,-3.3394360542297363,0.0,0.0,25.1626033782959,1.0,1.0,999.0,999.0,IMU,,,,,,,,,,,,,
IMU,9962543,1,0.013022293336689472,5.4411568271461874e-05,0.0009166774107143283,9.216678619384766,-0.10245150327682495,-3.3576979637145996,0.0,0.0,25.16253662109375,1.0,1.0,759.0,799.0,IMU,,,,,,,,,,,,,
IMU,9982543,0,-0.003594744950532913,2.1344716515159234e-05,-9.141757618635893e-05,9.216599464416504,-0.10772529244422913,-3.3738760948181152,0.0,0.0,25.163925170898438,1.0,1.0,999.0,999.0,IMU,,,,,,,,,,,,,
IMU,9982543,1,-0.00385766988620162,-0.00013196018699090928,-1.4552615539287217e-05,9.219919204711914,-0.10736841708421707,-3.5674495697021484,0.0,0.0,25.16385841369629,1.0,1.0,759.0,799.0,IMU,,,,,,,,,,,,,
IMU,10002543,0,-0.020625870674848557,0.00029439490754157305,-0.0010750996880233288,9.216760635375977,-0.1051587462425232,-3.357184648513794,0.0,0.0,25.165246963500977,1.0,1.0,999.0,999.0,IMU,,,,,,,,,,,,,
IMU,10002543,1,-0.02060389518737793,0.00022833776893094182,-0.0011084573343396187,9.215277671813965,-0.10262679308652878,-3.346606969833374,0.0,0.0,25.165180206298828,1.0,1.0,759.0,799.0,IMU,,,,,,,,,,,,,
IMU,10022543,0,-0.03773471340537071,0.0003483561158645898,-0.0020399063359946012,9.217538833618164,-0.10445671528577805,-3.3565125465393066,0.0,0.0,25.166568756103516,1.0,1.0,999.0,999.0,IMU,,,,,,,,,,,,,
IMU,10022543,1,-0.03742217272520065,0.00010865139483939856,-0.002111549489200115,9.217269897460938,-0.1038149744272232,-3.350780725479126,0.0,0.0,25.16650390625,1.0,1.0,759.0,799.0,IMU,,,,,,,,,,,,,
IMU,10042543,0,-0.05505526065826416,0.00037187058478593826,-0.0030170546378940344,9.217256546020508,-0.10062635689973831,-3.3567140102386475,0.0,0.0,25.167890548706055,1.0,1.0,999.0,999.0,IMU,,,,,,,,,,,,,
IMU,10042543,1,-0.05453872308135033,0.00027054117526859045,-0.0030219685286283493,9.21483325958252,-0.10145587474107742,-3.3567917346954346,0.0,0.0,25.16782569885254,1.0,1.0,759.0,799.0,IMU,,,,,,,,,,,,,
IMU,10062543,0,-0.06402303278446198,0.00035728071816265583,-0.0036353226751089096,9.216581344604492,-0.03554140403866768,-3.3535783290863037,0.0,0.0,25.169214248657227,1.0,1.0,999.0,999.0,IMU,,,,,,,,,,,,,
IMU,10062543,1,-0.06352490186691284,0.00011596438707783818,-0.0035849229898303747,9.218164443969727,-0.04049360752105713,-3.354001045227051,0.0,0.0,25.169147491455078,1.0,1.0,759.0,799.0,IMU,,,,,,,,,,,,,
IMU,10082543,0,-0.024905530735850334,0.0001815004798118025,-0.0012994856806471944,9.216651916503906,0.030062120407819748,-3.3525781631469727,0.0,0.0,25.170534133911133,1.0,1.0,999.0,999.0,IMU,,,,,,,,,,,,,
IMU,10082543,1,-0.02448611706495285,0.0002156860864488408,-0.0012492078822106123,9.216873168945312,0.03254420682787895,-3.352621555328369,0.0,0.0,25.170469284057617,1.0,1.0,759.0,799.0,IMU,,,,,,,,,,,,,
IMU,10102543,0,0.024164430797100067,0.00011189185897819698,0.0015158921014517546,9.215656280517578,0.02848236821591854,-3.353127956390381,0.0,0.0,25.171855926513672,1.0,1.0,999.0,999.0,IMU,,,,,,,,,,,,,
IMU,10102543,1,0.02393786422908306,0.00014868815196678042,0.0016278650145977736,9.216287612915039,0.028459986671805382,-3.3521034717559814,0.0,0.0,25.171791076660156,1.0,1.0,759.0,799.0,IMU,,,,,,,,,,,,,
IMU,10122543,0,0.0641578882932663,6.755487993359566e-05,0.003856111317873001,9.217916488647461,-0.03125450015068054,-3.3526740074157715,0.0,0.0,25.173179626464844,1.0,1.0,999.0,999.0,IMU,,,,,,,,,,,,,
IMU,10122543,1,0.06395994126796722,-2.3980132937140297e-06,0.003789485665038228,9.219679832458496,-0.021855223923921585,-3.35461688041687,0.0,0.0,25.173112869262695,1.0,1.0,759.0,799.0,IMU,,,,,,,,,,,,,
IMU,10142543,0,0.05635349452495575,-2.9174896553740837e-05,0.0034341360442340374,9.216692924499512,-0.10413642972707748,-3.3576607704162598,0.0,0.0,25.174501419067383,1.0,1.0,999.0,999.0,IMU,,,,,,,,,,,,,
IMU,10142543,1,0.05681177228689194,8.183043246390298e-05,0.003471466712653637,9.215654373168945,-0.10394526273012161,-3.357640266418457,0.0,0.0,25.174434661865234,1.0,1.0,759.0,799.0,IMU,,,,,,,,,,,,,
IMU,10162543,0,0.03698260337114334,1.3780642802885268e-05,0.0023020580410957336,9.216970443725586,-0.10576426982879639,-3.357372760772705,0.0,0.0,25.175823211669922,1.0,1.0,999.0,999.0,IMU,,,,,,,,,,,,,
IMU,10162543,1,0.03655198961496353,-3.881937300320715e-05,0.0021798713132739067,9.217679023742676,-0.10534714162349701,-3.357974052429199,0.0,0.0,25.175756454467773,1.0,1.0,759.0,799.0,IMU,,,,,,,,,,,,,
IMU,10182543,0,0.01964251697063446,8.448815060546622e-05,0.0012335969367995858,9.216734886169434,-0.10585393756628036,-3.358152389526367,0.0,0.0,25.177143096923828,1.0,1.0,999.0,999.0,IMU,,,,,,,,,,,,,
IMU,10182543,1,0.01953057572245598,0.00017657550051808357,0.0010956998448818922,9.217974662780762,-0.10526177287101746,-3.3545823097229004,0.0,0.0,25.177078247070312,1.0,1.0,759.0,799.0,IMU,,,,,,,,,,,,,
IMU,10202543,0,0.002523746807128191,8.741801138967276e-05,0.0002496029483154416,9.216660499572754,-0.10573665797710419,-3.356323719024658,0.0,0.0,25.178466796875,1.0,1.0,999.0,999.0,IMU,,,,,,,,,,,,,
IMU,10202543,1,0.0027555786073207855,6.361734995152801e-05,0.00016664445865899324,9.217020034790039,-0.10749010741710663,-3.3559072017669678,0.0,0.0,25.17839813232422,1.0,1.0,759.0,799.0,IMU,,,,,,,,,,,,,
IMU,10222543,0,-0.014512130990624428,0.0001989280281122774,-0.0007031384157016873,9.215727806091309,-0.10599227994680405,-3.3570494651794434,0.0,0.0,25.179786682128906,1.0,1.0,999.0,999.0,IMU,,,,,,,,,,,,,
IMU,10222543,1,-0.014162126928567886,0.00018827237363439053,-0.000689622072968632,9.217963218688965,-0.1040407344698906,-3.3580024242401123,0.0,0.0,25.17972183227539,1.0,1.0,759.0,799.0,IMU,,,,,,,,,,,,,
IMU,10242543,0,-0.03166546672582626,0.00030896023963578045,-0.001686616102233529,9.215896606445312,-0.10387986898422241,-3.357095718383789,0.0,0.0,25.181108474731445,1.0,1.0,999.0,999.0,IMU,,,,,,,,,,,,,
IMU,10242543,1,-0.030896998941898346,0.0003190847346559167,-0.0015829819021746516,9.217185974121094,-0.10318959504365921,-3.356785297393799,0.0,0.0,25.181041717529297,1.0,1.0,759.0,799.0,IMU,,,,,,,,,,,,,
IMU,10262543,0,-0.04888899251818657,0.0003166175738442689,-0.0027091738302260637,9.215771675109863,-0.100495845079422,-3.356048583984375,0.0,0.0,25.182430267333984,1.0,1.0,999.0,999.0,IMU,,,,,,,,,,,,,
IMU,10262543,1,-0.04926268011331558,0.0002009771706070751,-0.0027342569082975388,9.219622611999512,-0.10122944414615631,-3.3554296493530273,0.0,0.0,25.182363510131836,1.0,1.0,759.0,799.0,IMU,,,,,,,,,,,,,
IMU,10282543,0,-0.0648123025894165,0.00032204424496740103,-0.0036337797064334154,9.216839790344238,-0.07626066356897354,-3.354701519012451,0.0,0.0,25.18375015258789,1.0,1.0,999.0,999.0,IMU,,,,,,,,,,,,,
IMU,10282543,1,-0.0647926926612854,0.0003270131419412792,-0.003714142367243767,9.216398239135742,-0.08263155072927475,-3.3573904037475586,0.0,0.0,25.183685302734375,1.0,1.0,759.0,799.0,IMU,,,,,,,,,,,,,
IMU,10302543,0,-0.03837690129876137,0.000200152542674914,-0.002085296902805567,9.216127395629883,0.026052700355648994,-3.3532004356384277,0.0,0.0,25.18507194519043,1.0,1.0,999.0,999.0,IMU,,,,,,,,,,,,,
IMU,10302543,1,-0.038966938853263855,0.00017557320825289935,-0.0019597646314650774,9.214066505432129,0.021636806428432465,-3.352367877960205,0.0,0.0,25.18500518798828,1.0,1.0,759.0,799.0,IMU,,,,,,,,,,,,,
IMU,10322543,0,0.010686306282877922,9.464661707170308e-05,0.000827910378575325,9.216581344604492,0.03043791837990284,-3.3532862663269043,0.0,0.0,25.18639373779297,1.0,1.0,999.0,999.0,IMU,,,,,,,,,,,,,
IMU,10322543,1,0.009621108882129192,6.031018983776448e-06,0.0007234858931042254,9.218696594238281,0.02841218002140522,-3.3548130989074707,0.0,0.0,25.18632698059082,1.0,1.0,759.0,799.0,IMU,,,,,,,,,,,,,
IMU,10342543,0,0.05654442310333252,5.7941386330639943e-05,0.0034024755004793406,9.215192794799805,0.003683755872771144,-3.3519654273986816,0.0,0.0,25.187713623046875,1.0,1.0,999.0,999.0,IMU,,,,,,,,,,,,,
IMU,10342543,1,0.05493536219000816,0.00014637807908002287,0.003340014722198248,9.21673583984375,0.011777177453041077,-3.3558878898620605,0.0,0.0,25.187646865844727,1.0,1.0,759.0,799.0,IMU,,,,,,,,,,,,,
IMU,10362543,0,0.059564732015132904,-1.8396855011815205e-05,0.0036565985064953566,9.215957641601562,-0.0975581482052803,-3.356229782104492,0.0,0.0,25.18903350830078,1.0,1.0,999.0,999.0,IMU,,,,,,,,,,,,,
IMU,10362543,1,0.059344902634620667,-6.75536721246317e-05,0.00347813218832016,9.216606140136719,-0.09581965208053589,-3.3582944869995117,0.0,0.0,25.188968658447266,1.0,1.0,759.0,799.0,IMU,,,,,,,,,,,,,
IMU,10382543,0,0.04018329828977585,-1.5970210370142013e-05,0.002524914685636759,9.216621398925781,-0.10525067150592804,-3.3581318855285645,0.0,0.0,25.19035530090332,1.0,1.0,999.0,999.0,IMU,,,,,,,,,,,,,
IMU,10382543,1,0.04027458280324936,-2.1044766981503926e-05,0.002264202106744051,9.214227676391602,-0.10759052634239197,-3.354605197906494,0.0,0.0,25.190288543701172,1.0,1.0,759.0,799.0,IMU,,,,,,,,,,,,,
IMU,10402543,0,0.02251015231013298,5.905471334699541e-05,0.001447091344743967,9.216246604919434,-0.1061810553073883,-3.3567302227020264,0.0,0.0,25.191675186157227,1.0,1.0,999.0,999.0,IMU,,,,,,,,,,,,,
IMU,10402543,1,0.022919561713933945,1.906266697915271e-05,0.0015208881814032793,9.219045639038086,-0.10379169881343842,-3.3578548431396484,0.0,0.0,25.19161033630371,1.0,1.0,759.0,799.0,IMU,,,,,,,,,,,,,
IMU,10422543,0,0.005499361548572779,0.00015200661437120289,0.0004676012322306633,9.217866897583008,-0.10512524098157883,-3.3566081523895264,0.0,0.0,25.192996978759766,1.0,1.0,999.0,999.0,IMU,,,,,,,,,,,,,
IMU,10422543,1,0.005869132000952959,0.00018285700934939086,0.0004421659978106618,9.218358993530273,-0.10489694774150848,-3.356675148010254,0.0,0.0,25.192930221557617,1.0,1.0,759.0,799.0,IMU,,,,,,,,,,,,,
IMU,10442543,0,-0.011570176109671593,0.00016967079136520624,-0.0005336944595910609,9.216772079467773,-0.1053396612405777,-3.357186794281006,0.0,0.0,25.194316864013672,1.0,1.0,999.0,999.0,IMU,,,,,,,,,,,,,
IMU,10442543,1,-0.011815124191343784,0.00023376299941446632,-0.0006253794417716563,9.2169189453125,-0.10635591298341751,-3.3595967292785645,0.0,0.0,25.194250106811523,1.0,1.0,759.0,799.0,IMU,,,,,,,,,,,,,
IMU,10462543,0,-0.028727341443300247,0.00027588888769969344,-0.0015630779089406133,9.21647834777832,-0.10443395376205444,-3.355903387069702,0.0,0.0,25.195636749267578,1.0,1.0,999.0,999.0,IMU,,,,,,,,,,,,,
IMU,10462543,1,-0.02877858467400074,0.00025653193006291986,-0.0014216417912393808,9.21700668334961,-0.10347899794578552,-3.356975555419922,0.0,0.0,25.195571899414062,1.0,1.0,759.0,799.0,IMU,,,,,,,,,,,,,
IMU,10482543,0,-0.046016715466976166,0.0003241885278839618,-0.0025435129646211863,9.217168807983398,-0.10092539340257645,-3.3558413982391357,0.0,0.0,25.196956634521484,1.0,1.0,999.0,999.0,IMU,,,,,,,,,,,,,
IMU,10482543,1,-0.04599528759717941,0.00033272086875513196,-0.0025055210571736097,9.216679573059082,-0.1001800075173378,-3.357384204864502,0.0,0.0,25.19689178466797,1.0,1.0,759.0,799.0,IMU,,,,,,,,,,,,,
IMU,10502543,0,-0.06284959614276886,0.00038148299790918827,-0.003487212350592017,9.2164945602417,-0.0877290666103363,-3.356919765472412,0.0,0.0,25.19827651977539,1.0,1.0,999.0,999.0,IMU,,,,,,,,,,,,,
IMU,10502543,1,-0.06272871792316437,0.0003371270722709596,-0.0035931356251239777,9.219720840454102,-0.08958019316196442,-3.3571040630340576,0.0,0.0,25.198211669921875,1.0,1.0,759.0,799.0,IMU,,,,,,,,,,,,,
IMU,10522543,0,-0.04198667034506798,0.00021441021817736328,-0.002308058086782694,9.217647552490234,0.01971741020679474,-3.3550150394439697,0.0,0.0,25.199596405029297,1.0,1.0,999.0,999.0,IMU,,,,,,,,,,,,,
IMU,10522543,1,-0.043274886906147,0.00012966124631930143,-0.002377101220190525,9.217429161071777,0.01970026083290577,-3.352877616882324,0.0,0.0,25.19953155517578,1.0,1.0,759.0,799.0,IMU,,,,,,,,,,,,,
IMU,10542543,0,0.006594223435968161,-0.00012780091492459178,0.0005086431046947837,9.218276023864746,0.030942846089601517,-3.3651857376098633,0.0,0.0,25.200918197631836,1.0,1.0,999.0,999.0,IMU,,,,,,,,,,,,,
IMU,10542543,1,0.00785441230982542,0.00011124908633064479,0.0007452149875462055,9.217227935791016,0.03015025332570076,-3.369459867477417,0.0,0.0,25.200851440429688,1.0,1.0,759.0,799.0,IMU,,,,,,,,,,,,,
IMU,10562543,0,0.053558025509119034,0.000101102254120633,0.00326568353921175,9.217758178710938,0.009560959413647652,-3.358219623565674,0.0,0.0,25.202238082885742,1.0,1.0,999.0,999.0,IMU,,,,,,,,,,,,,
IMU,10562543,1,0.05369167774915695,-0.00011112109496025369,0.003363142255693674,9.218460083007812,0.011374594643712044,-3.3636648654937744,0.0,0.0,25.202171325683594,1.0,1.0,759.0,799.0,IMU,,,,,,,,,,,,,
IMU,10582543,0,0.05925532057881355,-4.222177085466683e-05,0.003606765531003475,9.217426300048828,-0.09512164443731308,-3.355116605758667,0.0,0.0,25.203556060791016,1.0,1.0,999.0,999.0,IMU,,,,,,,,,,,,,
IMU,10582543,1,0.059573233127593994,-7.714995444985107e-05,0.00342718418687582,9.216742515563965,-0.09389868378639221,-3.3540735244750977,0.0,0.0,25.2034912109375,1.0,1.0,759.0,799.0,IMU,,,,,,,,,,,,,
IMU,10602543,0,0.03988735005259514,5.0304934120504186e-05,0.0024995729327201843,9.21706771850586,-0.10531480610370636,-3.3572804927825928,0.0,0.0,25.204875946044922,1.0,1.0,999.0,999.0,IMU,,,,,,,,,,,,,
IMU,10602543,1,0.04047364741563797,5.755406527896412e-05,0.0024214701261371374,9.218589782714844,-0.10595688968896866,-3.354260206222534,0.0,0.0,25.204811096191406,1.0,1.0,759.0,799.0,IMU,,,,,,,,,,,,,
IMU,10622543,0,0.022205211222171783,8.569697092752904e-05,0.001487845554947853,9.216639518737793,-0.10432567447423935,-3.3564465045928955,0.0,0.0,25.206195831298828,1.0,1.0,999.0,999.0,IMU,,,,,,,,,,,,,
IMU,10622543,1,0.022751612588763237,0.00023075247008819133,0.0015360789839178324,9.216790199279785,-0.10308975726366043,-3.3576483726501465,0.0,0.0,25.206130981445312,1.0,1.0,759.0,799.0,IMU,,,,,,,,,,,,,
IMU,10642543,0,0.005200996063649654,0.000114447895612102,0.000529913289938122,9.217255592346191,-0.10555744171142578,-3.35707426071167,0.0,0.0,25.207515716552734,1.0,1.0,999.0,999.0,IMU,,,,,,,,,,,,,
IMU,10642543,1,0.004797008354216814,0.0003278879157733172,0.0002439746167510748,9.217510223388672,-0.10301239788532257,-3.3581130504608154,0.0,0.0,25.20745086669922,1.0,1.0,759.0,799.0,IMU,,,,,,,,,,,,,
IMU,10662543,0,-0.011941012926399708,0.00020120614499319345,-0.0005153822130523622,9.216463088989258,-0.10501500219106674,-3.356905937194824,0.0,0.0,25.20883560180664,1.0,1.0,999.0,999.0,IMU,,,,,,,,,,,,,
IMU,10662543,1,-0.011927132494747639,0.0003102383343502879,-0.0006633895100094378,9.214601516723633,-0.10261215269565582,-3.3563504219055176,0.0,0.0,25.208768844604492,1.0,1.0,759.0,799.0,IMU,,,,,,,,,,,,,
IMU,10682543,0,-0.02910846658051014,0.0002209446975030005,-0.0015441954601556063,9.216276168823242,-0.10281632095575333,-3.356109619140625,0.0,0.0,25.210155487060547,1.0,1.0,999.0,999.0,IMU,,,,,,,,,,,,,
IMU,10682543,1,-0.029021764174103737,0.00021624461805913597,-0.0015922689344733953,9.216293334960938,-0.1049763411283493,-3.3571224212646484,0.0,0.0,25.2100887298584,1.0,1.0,759.0,799.0,IMU,,,,,,,,,,,,,
IMU,10702543,0,-0.046457983553409576,0.00029406454996205866,-0.002566862851381302,9.215609550476074,-0.09958216547966003,-3.356307029724121,0.0,0.0,25.21147346496582,1.0,1.0,999.0,999.0,IMU,,,,,,,,,,,,,
IMU,10702543,1,-0.04602894186973572,0.0004370498354546726,-0.0025375024415552616,9.215619087219238,-0.1013035699725151,-3.3563075065612793,0.0,0.0,25.211408615112305,1.0,1.0,759.0,799.0,IMU,,,,,,,,,,,,,
IMU,10722543,0,-0.06168895587325096,0.00032007749541662633,-0.0034511706326156855,9.216449737548828,-0.06975851953029633,-3.3544604778289795,0.0,0.0,25.212793350219727,1.0,1.0,999.0,999.0,IMU,,,,,,,,,,,,,
IMU,10722543,1,-0.06160469725728035,0.00020848267013207078,-0.0035233013331890106,9.2178373336792,-0.07561524212360382,-3.3572278022766113,0.0,0.0,25.21272850036621,1.0,1.0,759.0,799.0,IMU,,,,,,,,,,,,,
IMU,10742543,0,-0.03274071589112282,0.00018222643120680004,-0.0017748636892065406,9.217400550842285,0.025519486516714096,-3.353355884552002,0.0,0.0,25.214111328125,1.0,1.0,999.0,999.0,IMU,,,,,,,,,,,,,
IMU,10742543,1,-0.03208136186003685,0.00013843635679222643,-0.0017652250826358795,9.217674255371094,0.021766912192106247,-3.3541369438171387,0.0,0.0,25.214046478271484,1.0,1.0,759.0,799.0,IMU,,,,,,,,,,,,,
IMU,10762543,0,0.016329672187566757,0.00015561839973088354,0.0010464087827131152,9.21646785736084,0.02975189872086048,-3.3540172576904297,0.0,0.0,25.215431213378906,1.0,1.0,999.0,999.0,IMU,,,,,,,,,,,,,
IMU,10762543,1,0.016327517107129097,0.00023040657106321305,0.0011395574547350407,9.219635009765625,0.027989331632852554,-3.355679512023926,0.0,0.0,25.21536636352539,1.0,1.0,759.0,799.0,IMU,,,,,,,,,,,,,
IMU,10782543,0,0.05821501836180687,1.7376440155203454e-05,0.0035681112203747034,9.217157363891602,-0.023062441498041153,-3.3538405895233154,0.0,0.0,25.21674919128418,1.0,1.0,999.0,999.0,IMU,,,,,,,,,,,,,
IMU,10782543,1,0.05798734351992607,9.891376248560846e-05,0.003570044646039605,9.218107223510742,-0.02233600988984108,-3.3543851375579834,0.0,0.0,25.216684341430664,1.0,1.0,759.0,799.0,IMU,,,,,,,,,,,,,
IMU,10802543,0,0.052314404398202896,2.5467668820056133e-05,0.0031527213286608458,9.216714859008789,-0.10417679697275162,-3.3555092811584473,0.0,0.0,25.218069076538086,1.0,1.0,999.0,999.0,IMU,,,,,,,,,,,,,
IMU,10802543,1,0.0528656467795372,7.486771210096776e-05,0.0032072009053081274,9.214851379394531,-0.10238567739725113,-3.357884168624878,0.0,0.0,25.218002319335938,1.0,1.0,759.0,799.0,IMU,,,,,,,,,,,,,
IMU,10822543,0,0.03284681215882301,-1.845492806751281e-05,0.0020530521869659424,9.217011451721191,-0.10413629561662674,-3.3571410179138184,0.0,0.0,25.21938705444336,1.0,1.0,999.0,999.0,IMU,,,,,,,,,,,,,
IMU,10822543,1,0.03223487734794617,0.00014323963841889054,0.0021602599881589413,9.216608047485352,-0.10355165600776672,-3.3595807552337646,0.0,0.0,25.219322204589844,1.0,1.0,759.0,799.0,IMU,,,,,,,,,,,,,
IMU,10842543,0,0.015464775264263153,4.968333087163046e-05,0.0010622976114973426,9.217072486877441,-0.10294054448604584,-3.3568592071533203,0.0,0.0,25.220706939697266,1.0,1.0,999.0,999.0,IMU,,,,,,,,,,,,,
IMU,10842543,1,0.015368619933724403,0.0002718587638810277,0.0010476785246282816,9.218097686767578,-0.10357804596424103,-3.358079671859741,0.0,0.0,25.220640182495117,1.0,1.0,759.0,799.0,IMU,,,,,,,,,,,,,
IMU,10862543,0,-0.0017204191535711288,0.0001525155530543998,5.1196213462390006e-05,9.216706275939941,-0.10334747284650803,-3.356820583343506,0.0,0.0,25.22202491760254,1.0,1.0,999.0,999.0,IMU,,,,,,,,,,,,,
IMU,10862543,1,-0.0016354612307623029,0.00011819609062513337,-4.3996755266562104e-05,9.216972351074219,-0.10570880770683289,-3.3581321239471436,0.0,0.0,25.221960067749023,1.0,1.0,759.0,799.0,IMU,,,,,,,,,,,,,
IMU,10882543,0,-0.018819350749254227,0.00027910032076761127,-0.0009901057928800583,9.217044830322266,-0.1038687601685524,-3.3568859100341797,0.0,0.0,25.223342895507812,1.0,1.0,999.0,999.0,IMU,,,,,,,,,,,,,
IMU,10882543,1,-0.018636636435985565,0.00014712632400915027,-0.0008495292859151959,9.214876174926758,-0.10280821472406387,-3.356311798095703,0.0,0.0,25.223278045654297,1.0,1.0,759.0,799.0,IMU,,,,,,,,,,,,,
IMU,10902543,0,-0.03598274663090706,0.00028194079641252756,-0.0018902001902461052,9.21614933013916,-0.10122169554233551,-3.355865955352783,0.0,0.0,25.22466278076172,1.0,1.0,999.0,999.0,IMU,,,,,,,,,,,,,
IMU,10902543,1,-0.03558600693941116,7.080258365022019e-05,-0.0018406910821795464,9.219199180603027,-0.10068744421005249,-3.3569841384887695,0.0,0.0,25.22459602355957,1.0,1.0,759.0,799.0,IMU,,,,,,,,,,,,,
IMU,10922543,0,-0.05333278328180313,0.00032944761915132403,-0.0029457055497914553,9.217000961303711,-0.09801022708415985,-3.356555938720703,0.0,0.0,25.225980758666992,1.0,1.0,999.0,999.0,IMU,,,,,,,,,,,,,
IMU,10922543,1,-0.05386846140027046,0.00034061013138853014,-0.002921278355643153,9.216228485107422,-0.09683948755264282,-3.3557288646698,0.0,0.0,25.225914001464844,1.0,1.0,759.0,799.0,IMU,,,,,,,,,,,,,
IMU,10942543,0,-0.051651038229465485,0.00023538438836112618,-0.0029137483797967434,9.217926025390625,-0.005355559755116701,-3.354349136352539,0.0,0.0,25.227298736572266,1.0,1.0,999.0,999.0,IMU,,,,,,,,,,,,,
IMU,10942543,1,-0.05139290541410446,0.00018629069381859154,-0.0029527656733989716,9.216402053833008,-0.009183160960674286,-3.3514413833618164,0.0,0.0,25.22723388671875,1.0,1.0,759.0,799.0,IMU,,,,,,,,,,,,,
IMU,10962543,0,-0.006418267264962196,0.00021458657283801585,-0.00019547008560039103,9.217418670654297,0.0315573625266552,-3.3541066646575928,0.0,0.0,25.22861671447754,1.0,1.0,999.0,999.0,IMU,,,,,,,,,,,,,
IMU,10962543,1,-0.0064509231597185135,0.0001340502785751596,-0.00032279148581437767,9.216422080993652,0.03093848191201687,-3.354623317718506,0.0,0.0,25.22854995727539,1.0,1.0,759.0,799.0,IMU,,,,,,,,,,,,,
IMU,10982543,0,0.041831694543361664,0.00011616433039307594,0.0026481947861611843,9.21668815612793,0.0240182988345623,-3.3535263538360596,0.0,0.0,25.229934692382812,1.0,1.0,999.0,999.0,IMU,,,,,,,,,,,,,
IMU,10982543,1,0.04101976379752159,0.00018198754696641117,0.0025527640245854855,9.21600341796875,0.0276949480175972,-3.3528714179992676,0.0,0.0,25.229869842529297,1.0,1.0,759.0,799.0,IMU,,,,,,,,,,,,,
IMU,11002543,0,0.0559973269701004,7.862514394219033e-06,0.003440784988924861,9.217351913452148,-0.0861908420920372,-3.3568878173828125,0.0,0.0,25.231252670288086,1.0,1.0,999.0,999.0,IMU,,,,,,,,,,,,,
IMU,11002543,1,0.05645941197872162,-0.0001312815584242344,0.0033514981623739004,9.216581344604492,-0.08392156660556793,-3.3555121421813965,0.0,0.0,25.23118782043457,1.0,1.0,759.0,799.0,IMU,,,,,,,,,,,,,
IMU,11022543,0,0.03733265399932861,3.0931609217077494e-05,0.0023595155216753483,9.217626571655273,-0.10462937504053116,-3.357539653778076,0.0,0.0,25.23257064819336,1.0,1.0,999.0,999.0,IMU,,,,,,,,,,,,,
IMU,11022543,1,0.03690548241138458,1.7141923308372498e-05,0.002321826061233878,9.21723747253418,-0.10449545085430145,-3.35736083984375,0.0,0.0,25.23250389099121,1.0,1.0,759.0,799.0,IMU,,,,,,,,,,,,,
IMU,11042543,0,0.019225986674427986,6.865043542347848e-05,0.0012564510107040405,9.218204498291016,-0.10286196321249008,-3.3575925827026367,0.0,0.0,25.233888626098633,1.0,1.0,999.0,999.0,IMU,,,,,,,,,,,,,
IMU,11042543,1,0.018925746902823448,0.00012681412044912577,0.0014260313473641872,9.216751098632812,-0.10338208824396133,-3.3557252883911133,0.0,0.0,25.233821868896484,1.0,1.0,759.0,799.0,IMU,,,,,,,,,,,,,
IMU,11062543,0,0.002071117050945759,5.835163392475806e-06,0.00027677923208102584,9.21716594696045,-0.10363009572029114,-3.2986605167388916,0.0,0.0,25.235206604003906,1.0,1.0,999.0,999.0,IMU,,,,,,,,,,,,,
IMU,11062543,1,0.0023790616542100906,0.0001595854409970343,0.00028135505272075534,9.215577125549316,-0.10281427204608917,-3.281381607055664,0.0,0.0,25.235139846801758,1.0,1.0,759.0,799.0,IMU,,,,,,,,,,,,,
IMU,11082543,0,-0.015098952688276768,9.577745368005708e-05,-0.0007134479819796979,9.217015266418457,-0.10336571931838989,-3.37221097946167,0.0,0.0,25.236522674560547,1.0,1.0,999.0,999.0,IMU,,,,,,,,,,,,,
IMU,11082543,1,-0.014804143458604813,0.000347007968230173,-0.0006680402439087629,9.217118263244629,-0.10309457033872604,-3.3834080696105957,0.0,0.0,25.23645782470703,1.0,1.0,759.0,799.0,IMU,,,,,,,,,,,,,
IMU,11102543,0,-0.03224426880478859,0.0003820513666141778,-0.0017311186529695988,9.21585750579834,-0.10151694715023041,-3.357045888900757,0.0,0.0,25.237842559814453,1.0,1.0,999.0,999.0,IMU,,,,,,,,,,,,,
IMU,11102543,1,-0.03159012272953987,0.00039758827188052237,-0.0016559771029278636,9.21556282043457,-0.10179456323385239,-3.3572356700897217,0.0,0.0,25.237773895263672,1.0,1.0,759.0,799.0,IMU,,,,,,,,,,,,,
IMU,11122543,0,-0.0496746227145195,0.00042179293814115226,-0.002732803113758564,9.218098640441895,-0.09877687692642212,-3.3564844131469727,0.0,0.0,25.239158630371094,1.0,1.0,999.0,999.0,IMU,,,,,,,,,,,,,
IMU,11122543,1,-0.04997909069061279,0.00041960980161093175,-0.0028053068090230227,9.220298767089844,-0.09914802014827728,-3.355130434036255,0.0,0.0,25.239093780517578,1.0,1.0,759.0,799.0,IMU,,,,,,,,,,,,,
IMU,11142543,0,-0.05038473755121231,0.00028601576923392713,-0.002792821731418371,9.217143058776855,-0.010906273499131203,-3.3536336421966553,0.0,0.0,25.240476608276367,1.0,1.0,999.0,999.0,IMU,,,,,,,,,,,,,
IMU,11142543,1,-0.05045754462480545,0.00023778260219842196,-0.002919652033597231,9.2173433303833,-0.01607212983071804,-3.3551623821258545,0.0,0.0,25.24040985107422,1.0,1.0,759.0,799.0,IMU,,,,,,,,,,,,,
IMU,11162543,0,-0.006086572073400021,0.0001862111093942076,-0.00019680085824802518,9.21693229675293,0.03160219267010689,-3.352388381958008,0.0,0.0,25.241792678833008,1.0,1.0,999.0,999.0,IMU,,,,,,,,,,,,,
IMU,11162543,1,-0.006549002602696419,0.00024022547586355358,-0.00011018072109436616,9.216737747192383,0.03117378056049347,-3.353142499923706,0.0,0.0,25.241727828979492,1.0,1.0,759.0,799.0,IMU,,,,,,,,,,,,,
IMU,11182543,0,0.04212501272559166,0.0001192330673802644,0.002618814120069146,9.216822624206543,0.01962142065167427,-3.3535828590393066,0.0,0.0,25.24311065673828,1.0,1.0,999.0,999.0,IMU,,,,,,,,,,,,,
IMU,11182543,1,0.04133789241313934,0.00010659541294444352,0.002520800568163395,9.217422485351562,0.023487120866775513,-3.3518669605255127,0.0,0.0,25.243045806884766,1.0,1.0,759.0,799.0,IMU,,,,,,,,,,,,,
IMU,11202543,0,0.053525276482105255,-1.5160263501456939e-05,0.003284443635493517,9.216764450073242,-0.089725062251091,-3.356204032897949,0.0,0.0,25.244428634643555,1.0,1.0,999.0,999.0,IMU,,,,,,,,,,,,,
IMU,11202543,1,0.05411297455430031,0.00011866867134813219,0.0031644487753510475,9.217823028564453,-0.0868275910615921,-3.354527473449707,0.0,0.0,25.244361877441406,1.0,1.0,759.0,799.0,IMU,,,,,,,,,,,,,
IMU,11222543,0,0.03456880897283554,9.057363058673218e-05,0.002177196554839611,9.215818405151367,-0.1044103354215622,-3.3566982746124268,0.0,0.0,25.245744705200195,1.0,1.0,999.0,999.0,IMU,,,,,,,,,,,,,
IMU,11222543,1,0.03429991006851196,1.1295095646346454e-05,0.002031320473179221,9.216164588928223,-0.10521342605352402,-3.359325408935547,0.0,0.0,25.245677947998047,1.0,1.0,759.0,799.0,IMU,,,,,,,,,,,,,
IMU,11242543,0,0.01648472249507904,0.00014760371414013207,0.0010870721889659762,9.216301918029785,-0.10275103896856308,-3.35658597946167,0.0,0.0,25.247060775756836,1.0,1.0,999.0,999.0,IMU,,,,,,,,,,,,,
IMU,11242543,1,0.016714610159397125,0.00016147163114510477,0.0011916009243577719,9.21860408782959,-0.10154859721660614,-3.3593544960021973,0.0,0.0,25.24699592590332,1.0,1.0,759.0,799.0,IMU,,,,,,,,,,,,,
IMU,11262543,0,-0.0006408612825907767,0.0002086561289615929,0.00013590409071184695,9.216243743896484,-0.10343543440103531,-3.3562655448913574,0.0,0.0,25.24837875366211,1.0,1.0,999.0,999.0,IMU,,,,,,,,,,,,,
IMU,11262543,1,-0.00038366863736882806,0.0001280788565054536,0.00010981883679050952,9.217467308044434,-0.10042969882488251,-3.35549259185791,0.0,0.0,25.24831199645996,1.0,1.0,759.0,799.0,IMU,,,,,,,,,,,,,
IMU,11282543,0,-0.017798375338315964,0.0002470646577421576,-0.0008219097508117557,9.216663360595703,-0.10176301002502441,-3.3570592403411865,0.0,0.0,25.24969482421875,1.0,1.0,999.0,999.0,IMU,,,,,,,,,,,,,
IMU,11282543,1,-0.01731773279607296,0.0002283775102114305,-0.0009265944245271385,9.214729309082031,-0.10087468475103378,-3.3588123321533203,0.0,0.0,25.249629974365234,1.0,1.0,759.0,799.0,IMU,,,,,,,,,,,,,
IMU,11302543,0,-0.035142164677381516,0.00031011999817565084,-0.0018818536773324013,9.217379570007324,-0.1008380800485611,-3.356768846511841,0.0,0.0,25.25101089477539,1.0,1.0,999.0,999.0,IMU,,,,,,,,,,,,,
IMU,11302543,1,-0.03558973968029022,0.00043083581840619445,-0.0020911518950015306,9.216514587402344,-0.10061748325824738,-3.358013153076172,0.0,0.0,25.250946044921875,1.0,1.0,759.0,799.0,IMU,,,,,,,,,,,,,
IMU,11322543,0,-0.052435390651226044,0.00034299257094971836,-0.0029408519621938467,9.217247009277344,-0.09447237104177475,-3.357783794403076,0.0,0.0,25.25232696533203,1.0,1.0,999.0,999.0,IMU,,,,,,,,,,,,,
IMU,11322543,1,-0.05253811180591583,0.00030603475170210004,-0.0029385569505393505,9.217513084411621,-0.09571537375450134,-3.356570243835449,0.0,0.0,25.252262115478516,1.0,1.0,759.0,799.0,IMU,,,,,,,,,,,,,
IMU,11342543,0,-0.037179332226514816,0.00023195554967969656,-0.002033008961006999,9.216788291931152,0.01428271271288395,-3.353914737701416,0.0,0.0,25.253643035888672,1.0,1.0,999.0,999.0,IMU,,,,,,,,,,,,,
IMU,11342543,1,-0.03728833422064781,0.0001399554021190852,-0.0019568833522498608,9.217164993286133,0.012944760732352734,-3.352933883666992,0.0,0.0,25.253578186035156,1.0,1.0,759.0,799.0,IMU,,,,,,,,,,,,,
IMU,11362543,0,0.011033259332180023,0.00016442725609522313,0.0007975673070177436,9.216821670532227,0.028859592974185944,-3.3523600101470947,0.0,0.0,25.254961013793945,1.0,1.0,999.0,999.0,IMU,,,,,,,,,,,,,
IMU,11362543,1,0.010062296874821186,0.00013060324999969453,0.0008959068218246102,9.216814994812012,0.02940511703491211,-3.3523902893066406,0.0,0.0,25.25489616394043,1.0,1.0,759.0,799.0,IMU,,,,,,,,,,,,,
IMU,11382543,0,0.05200241506099701,7.53500935388729e-05,0.0032186205498874187,9.217267990112305,-0.03039792738854885,-3.353299856185913,0.0,0.0,25.256277084350586,1.0,1.0,999.0,999.0,IMU,,,,,,,,,,,,,
IMU,11382543,1,0.05164824426174164,0.00010003918578149751,0.003273889422416687,9.21583366394043,-0.02333512157201767,-3.3528530597686768,0.0,0.0,25.25621223449707,1.0,1.0,759.0,799.0,IMU,,,,,,,,,,,,,
IMU,11402543,0,0.044075243175029755,4.370530223241076e-05,0.002709808526560664,9.21666145324707,-0.10267402976751328,-3.3568201065063477,0.0,0.0,25.257593154907227,1.0,1.0,999.0,999.0,IMU,,,,,,,,,,,,,
IMU,11402543,1,0.043660812079906464,5.463186607812531e-05,0.002729566767811775,9.21623706817627,-0.10303426533937454,-3.3563642501831055,0.0,0.0,25.25752830505371,1.0,1.0,759.0,799.0,IMU,,,,,,,,,,,,,
IMU,11422543,0,0.02464010939002037,0.00012360156688373536,0.0015899969730526209,9.216803550720215,-0.10183168947696686,-3.3581695556640625,0.0,0.0,25.258909225463867,1.0,1.0,999.0,999.0,IMU,,,,,,,,,,,,,
IMU,11422543,1,0.02459212765097618,0.00010798393486766145,0.0015304185217246413,9.213478088378906,-0.10230996459722519,-3.354674816131592,0.0,0.0,25.25884437561035,1.0,1.0,759.0,799.0,IMU,,,,,,,,,,,,,
IMU,11442543,0,0.007321379147469997,0.00010225056030321866,0.0006039309082552791,9.21691608428955,-0.10307507961988449,-3.3569228649139404,0.0,0.0,25.260225296020508,1.0,1.0,999.0,999.0,IMU,,,,,,,,,,,,,
IMU,11442543,1,0.007449058815836906,0.00023339141625910997,0.0005857295473106205,9.216983795166016,-0.10232022404670715,-3.35784649848938,0.0,0.0,25.260160446166992,1.0,1.0,759.0,799.0,IMU,,,,,,,,,,,,,
IMU,11462543,0,-0.00978771597146988,0.00019048286776524037,-0.0003520368773024529,9.217001914978027,-0.10308510065078735,-3.3577380180358887,0.0,0.0,25.26154136657715,1.0,1.0,999.0,999.0,IMU,,,,,,,,,,,,,
IMU,11462543,1,-0.009517407976090908,0.00017689767992123961,-0.0003309099411126226,9.215978622436523,-0.10057920217514038,-3.3588292598724365,0.0,0.0,25.261476516723633,1.0,1.0,759.0,799.0,IMU,,,,,,,,,,,,,
IMU,11482543,0,-0.027169208973646164,0.00026148412143811584,-0.0014336255844682455,9.216967582702637,-0.10085533559322357,-3.3573381900787354,0.0,0.0,25.26285743713379,1.0,1.0,999.0,999.0,IMU,,,,,,,,,,,,,
IMU,11482543,1,-0.026416126638650894,0.00013549586583394557,-0.001400058506987989,9.216267585754395,-0.10136106610298157,-3.357396125793457,0.0,0.0,25.262792587280273,1.0,1.0,759.0,799.0,IMU,,,,,,,,,,,,,
IMU,11502543,0,-0.044541869312524796,0.00032891647424548864,-0.002432176610454917,9.217936515808105,-0.09840168058872223,-3.3569416999816895,0.0,0.0,25.264171600341797,1.0,1.0,999.0,999.0,IMU,,,,,,,,,,,,,
IMU,11502543,1,-0.044830888509750366,0.0003780722036026418,-0.002285510767251253,9.215592384338379,-0.09860584139823914,-3.356180429458618,0.0,0.0,25.26410675048828,1.0,1.0,759.0,799.0,IMU,,,,,,,,,,,,,
IMU,11522543,0,-0.04533473029732704,0.00024948077043518424,-0.0024994940031319857,9.217020988464355,-0.011476624757051468,-3.35325288772583,0.0,0.0,25.265487670898438,1.0,1.0,999.0,999.0,IMU,,,,,,,,,,,,,
IMU,11522543,1,-0.04527775198221207,9.309555753134191e-05,-0.0024535551201552153,9.21677303314209,-0.01611020229756832,-3.3550682067871094,0.0,0.0,25.265422821044922,1.0,1.0,759.0,799.0,IMU,,,,,,,,,,,,,
IMU,11542543,0,-0.00104922940954566,0.00018322779214940965,0.00012582646741066128,9.217113494873047,0.03028794936835766,-3.353245973587036,0.0,0.0,25.266803741455078,1.0,1.0,999.0,999.0,IMU,,,,,,,,,,,,,
IMU,11542543,1,-0.0014885840937495232,0.00013676067464984953,0.0002071825001621619,9.215961456298828,0.03003387525677681,-3.3541741371154785,0.0,0.0,25.266738891601562,1.0,1.0,759.0,799.0,IMU,,,,,,,,,,,,,
IMU,11562543,0,0.045517392456531525,6.0230871895328164e-05,0.0027468241751194,9.217278480529785,-0.0009995996952056885,-3.3539648056030273,0.0,0.0,25.26811981201172,1.0,1.0,999.0,999.0,IMU,,,,,,,,,,,,,
IMU,11562543,1,0.04475856572389603,0.0003039881703443825,0.0026040293741971254,9.216617584228516,0.003470315597951412,-3.355947732925415,0.0,0.0,25.268054962158203,1.0,1.0,759.0,799.0,IMU,,,,,,,,,,,,,
IMU,11582543,0,0.04603688791394234,3.119968096143566e-05,0.0028200275264680386,9.216853141784668,-0.0976487547159195,-3.3570432662963867,0.0,0.0,25.26943588256836,1.0,1.0,999.0,999.0,IMU,,,,,,,,,,,,,
IMU,11582543,1,0.04676496610045433,-4.622322740033269e-05,0.0028053682763129473,9.216575622558594,-0.09707660228013992,-3.357762098312378,0.0,0.0,25.269371032714844,1.0,1.0,759.0,799.0,IMU,,,,,,,,,,,,,
IMU,11602543,0,0.026509441435337067,4.352533142082393e-05,0.001703451736830175,9.217475891113281,-0.10393451899290085,-3.35760498046875,0.0,0.0,25.270750045776367,1.0,1.0,999.0,999.0,IMU,,,,,,,,,,,,,
IMU,11602543,1,0.02631661295890808,-1.665139279793948e-05,0.0017222000751644373,9.215682983398438,-0.10456933081150055,-3.356736660003662,0.0,0.0,25.27068519592285,1.0,1.0,759.0,799.0,IMU,,,,,,,,,,,,,
IMU,11622543,0,0.008745722472667694,-0.00011475617793621495,0.0006691142916679382,9.217623710632324,-0.10185855627059937,-3.3580098152160645,0.0,0.0,25.272066116333008,1.0,1.0,999.0,999.0,IMU,,,,,,,,,,,,,
IMU,11622543,1,0.00863933376967907,-0.00020836891781073064,0.0006143262726254761,9.214885711669922,-0.10094927251338959,-3.354161024093628,0.0,0.0,25.27199935913086,1.0,1.0,759.0,799.0,IMU,,,,,,,,,,,,,
IMU,11642543,0,-0.00826866365969181,0.00026312354020774364,-0.0003736127691809088,9.217214584350586,-0.1014215499162674,-3.3647103309631348,0.0,0.0,25.27338218688965,1.0,1.0,999.0,999.0,IMU,,,,,,,,,,,,,
IMU,11642543,1,-0.008134747855365276,0.00031127981492318213,-0.0004360371676739305,9.21617603302002,-0.1016605943441391,-3.3722314834594727,0.0,0.0,25.2733154296875,1.0,1.0,759.0,799.0,IMU,,,,,,,,,,,,,
IMU,11662543,0,-0.025581907480955124,0.0003146962553728372,-0.0013274106895551085,9.216964721679688,-0.1019686609506607,-3.3568246364593506,0.0,0.0,25.274696350097656,1.0,1.0,999.0,999.0,IMU,,,,,,,,,,,,,
IMU,11662543,1,-0.02504114620387554,0.00022718540276400745,-0.0012520579621195793,9.216949462890625,-0.09810638427734375,-3.3547728061676025,0.0,0.0,25.27463150024414,1.0,1.0,759.0,799.0,IMU,,,,,,,,,,,,,
IMU,11682543,0,-0.04294866323471069,0.0003498732694424689,-0.0023890286684036255,9.217181205749512,-0.09824064373970032,-3.3561692237854004,0.0,0.0,25.276010513305664,1.0,1.0,999.0,999.0,IMU,,,,,,,,,,,,,
IMU,11682543,1,-0.042315248399972916,0.00035957692307420075,-0.0023313399869948626,9.218421936035156,-0.0970747098326683,-3.354504108428955,0.0,0.0,25.27594566345215,1.0,1.0,759.0,799.0,IMU,,,,,,,,,,,,,
IMU,11702543,0,-0.04383260756731033,0.0002799524227157235,-0.002367905341088772,9.21741771697998,-0.011657586321234703,-3.3543894290924072,0.0,0.0,25.277326583862305,1.0,1.0,999.0,999.0,IMU,,,,,,,,,,,,,
IMU,11702543,1,-0.04337865486741066,0.0002882754779420793,-0.0024270012509077787,9.21739673614502,-0.017336398363113403,-3.354606866836548,0.0,0.0,25.277259826660156,1.0,1.0,759.0,799.0,IMU,,,,,,,,,,,,,
IMU,11722543,0,0.0005501714185811579,0.00022587667626794428,0.00021374209609348327,9.21728515625,0.03153634071350098,-3.352595090866089,0.0,0.0,25.278640747070312,1.0,1.0,999.0,999.0,IMU,,,,,,,,,,,,,
IMU,11722543,1,0.0003554808790795505,0.00023822438379283994,0.000268368428805843,9.217386245727539,0.03179820626974106,-3.352642774581909,0.0,0.0,25.278575897216797,1.0,1.0,759.0,799.0,IMU,,,,,,,,,,,,,
IMU,11742543,0,0.04487517476081848,9.593681897968054e-05,0.002795892534777522,9.21602725982666,-0.02268393710255623,-3.352947950363159,0.0,0.0,25.279956817626953,1.0,1.0,999.0,999.0,IMU,,,,,,,,,,,,,
IMU,11742543,1,0.04449605196714401,7.431981794070452e-05,0.0027774928603321314,9.216346740722656,-0.021069921553134918,-3.350813388824463,0.0,0.0,25.279890060424805,1.0,1.0,759.0,799.0,IMU,,,,,,,,,,,,,
IMU,11762543,0,0.04107237234711647,5.8522964536678046e-05,0.002530850237235427,9.217445373535156,-0.1028464138507843,-3.3559226989746094,0.0,0.0,25.281269073486328,1.0,1.0,999.0,999.0,IMU,,,,,,,,,,,,,
IMU,11762543,1,0.04163292422890663,-9.085187230084557e-06,0.0024422300048172474,9.21530532836914,-0.10173200070858002,-3.3561830520629883,0.0,0.0,25.281204223632812,1.0,1.0,759.0,799.0,IMU,,,,,,,,,,,,,
IMU,11782543,0,0.021473810076713562,9.517295256955549e-05,0.0013563442043960094,9.21633529663086,-0.10358181595802307,-3.3568673133850098,0.0,0.0,25.28258514404297,1.0,1.0,999.0,999.0,IMU,,,,,,,,,,,,,
IMU,11782543,1,0.020881053060293198,0.00012150754628237337,0.0014595836400985718,9.216263771057129,-0.1037754938006401,-3.357419729232788,0.0,0.0,25.28251838684082,1.0,1.0,759.0,799.0,IMU,,,,,,,,,,,,,
IMU,11802543,0,0.0039172088727355,0.00017479756206739694,0.00034464176860637963,9.217803001403809,-0.10142829269170761,-3.3577487468719482,0.0,0.0,25.283899307250977,1.0,1.0,999.0,999.0,IMU,,,,,,,,,,,,,
IMU,11802543,1,0.003523213090375066,0.0003391540958546102,0.0003619156777858734,9.217263221740723,-0.1011141687631607,-3.3582568168640137,0.0,0.0,25.28383445739746,1.0,1.0,759.0,799.0,IMU,,,,,,,,,,,,,
IMU,11822543,0,-0.013272256590425968,0.00027059641433879733,-0.0006357533857226372,9.217145919799805,-0.1015792191028595,-3.357694387435913,0.0,0.0,25.285213470458984,1.0,1.0,999.0,999.0,IMU,,,,,,,,,,,,,
IMU,11822543,1,-0.013292262330651283,0.00032954177004285157,-0.0006569515680894256,9.21657943725586,-0.10122393071651459,-3.3583362102508545,0.0,0.0,25.285146713256836,1.0,1.0,759.0,799.0,IMU,,,,,,,,,,,,,
IMU,11842543,0,-0.030573882162570953,0.000286920927464962,-0.0016006507212296128,9.21681022644043,-0.10011540353298187,-3.358140707015991,0.0,0.0,25.286527633666992,1.0,1.0,999.0,999.0,IMU,,,,,,,,,,,,,
IMU,11842543,1,-0.030099451541900635,0.000178874222910963,-0.0015333103947341442,9.216458320617676,-0.09972430020570755,-3.3588974475860596,0.0,0.0,25.286462783813477,1.0,1.0,759.0,799.0,IMU,,,,,,,,,,,,,
IMU,11862543,0,-0.04715646803379059,0.00030796555802226067,-0.0025693923234939575,9.216070175170898,-0.08129332214593887,-3.3562614917755127,0.0,0.0,25.287841796875,1.0,1.0,999.0,999.0,IMU,,,,,,,,,,,,,
IMU,11862543,1,-0.046828337013721466,0.00031330707133747637,-0.0024768433067947626,9.21618938446045,-0.08503755182027817,-3.358058452606201,0.0,0.0,25.287776947021484,1.0,1.0,759.0,799.0,IMU,,,,,,,,,,,,,
IMU,11882543,0,-0.02338792011141777,0.00018941164307761937,-0.0012256666086614132,9.216633796691895,0.022078098729252815,-3.3540706634521484,0.0,0.0,25.289155960083008,1.0,1.0,999.0,999.0,IMU,,,,,,,,,,,,,
IMU,11882543,1,-0.02230587787926197,0.00030077574774622917,-0.000985998660326004,9.21896743774414,0.021881353110074997,-3.3531692028045654,0.0,0.0,25.289091110229492,1.0,1.0,759.0,799.0,IMU,,,,,,,,,,,,,
IMU,11902543,0,0.025489531457424164,0.0001423681533196941,0.0016344822943210602,9.216552734375,0.027614425867795944,-3.352632761001587,0.0,0.0,25.290470123291016,1.0,1.0,999.0,999.0,IMU,,,,,,,,,,,,,
IMU,11902543,1,0.025888456031680107,0.0002323288208572194,0.001853170688264072,9.217531204223633,0.027150625362992287,-3.3534598350524902,0.0,0.0,25.2904052734375,1.0,1.0,759.0,799.0,IMU,,,,,,,,,,,,,
IMU,11922543,0,0.045996472239494324,5.341085488907993e-05,0.0028309558983892202,9.216181755065918,-0.07927895337343216,-3.355708122253418,0.0,0.0,25.291784286499023,1.0,1.0,999.0,999.0,IMU,,,,,,,,,,,,,
IMU,11922543,1,0.04591313749551773,-3.0157230867189355e-05,0.0028583426028490067,9.216928482055664,-0.07994488626718521,-3.3564839363098145,0.0,0.0,25.291717529296875,1.0,1.0,759.0,799.0,IMU,,,,,,,,,,,,,
IMU,11942543,0,0.028064195066690445,0.0001257899566553533,0.001820325036533177,9.218050003051758,-0.10539792478084564,-3.356844902038574,0.0,0.0,25.29309844970703,1.0,1.0,999.0,999.0,IMU,,,,,,,,,,,,,
IMU,11942543,1,0.028527766466140747,7.647258462384343e-05,0.0018305489793419838,9.215659141540527,-0.10621309280395508,-3.356238842010498,0.0,0.0,25.293031692504883,1.0,1.0,759.0,799.0,IMU,,,,,,,,,,,,,
IMU,11962543,0,0.009770716540515423,0.00016370708181057125,0.000698149437084794,9.216962814331055,-0.10138831287622452,-3.356125831604004,0.0,0.0,25.294410705566406,1.0,1.0,999.0,999.0,IMU,,,,,,,,,,,,,
IMU,11962543,1,0.010325015522539616,0.00013253999350126833,0.0007423078641295433,9.215826988220215,-0.10281705856323242,-3.3584144115448,0.0,0.0,25.29434585571289,1.0,1.0,759.0,799.0,IMU,,,,,,,,,,,,,
IMU,11982543,0,-0.007492545992136002,0.00021884673333261162,-0.0002981293364427984,9.21634578704834,-0.10088471323251724,-3.3570587635040283,0.0,0.0,25.295724868774414,1.0,1.0,999.0,999.0,IMU,,,,,,,,,,,,,
IMU,11982543,1,-0.007773435674607754,0.00013390087406150997,-0.0003934806736651808,9.218500137329102,-0.10063688457012177,-3.358008623123169,0.0,0.0,25.2956600189209,1.0,1.0,759.0,799.0,IMU,,,,,,,,,,,,,
IMU,12002543,0,-0.02481217496097088,0.0002935202792286873,-0.001329035614617169,9.217315673828125,-0.09997903555631638,-3.3573055267333984,0.0,0.0,25.297039031982422,1.0,1.0,999.0,999.0,IMU,,,,,,,,,,,,,
IMU,12002543,1,-0.024917230010032654,0.00015305726265069097,-0.0012624404625967145,9.218446731567383,-0.09799907356500626,-3.356011390686035,0.0,0.0,25.296972274780273,1.0,1.0,759.0,799.0,IMU,,,,,,,,,,,,,
IMU,12022543,0,-0.04227463901042938,0.0003337656380608678,-0.0023030282463878393,9.215744018554688,-0.09579765796661377,-3.3572537899017334,0.0,0.0,25.298351287841797,1.0,1.0,999.0,999.0,IMU,,,,,,,,,,,,,
IMU,12022543,1,-0.04206560552120209,0.00037465200875885785,-0.0020259444136172533,9.216724395751953,-0.0975751280784607,-3.3570938110351562,0.0,0.0,25.29828643798828,1.0,1.0,759.0,799.0,IMU,,,,,,,,,,,,,
IMU,12042543,0,-0.029780756682157516,0.0002828789292834699,-0.0015875950921326876,9.217641830444336,0.010858346708118916,-3.3541531562805176,0.0,0.0,25.299665451049805,1.0,1.0,999.0,999.0,IMU,,,,,,,,,,,,,
IMU,12042543,1,-0.030703537166118622,5.792295269202441e-05,-0.001655333093367517,9.21607494354248,0.007801843341439962,-3.355278968811035,0.0,0.0,25.29960060119629,1.0,1.0,759.0,799.0,IMU,,,,,,,,,,,,,
IMU,12062543,0,0.018159544095396996,0.00017591926734894514,0.0012425127206370234,9.217842102050781,0.029186666011810303,-3.3545596599578857,0.0,0.0,25.30097770690918,1.0,1.0,999.0,999.0,IMU,,,,,,,,,,,,,
IMU,12062543,1,0.01608290523290634,7.663058931939304e-05,0.0010490004206076264,9.219185829162598,0.031543467193841934,-3.3534393310546875,0.0,0.0,25.300912857055664,1.0,1.0,759.0,799.0,IMU,,,,,,,,,,,,,
IMU,12082543,0,0.04428539052605629,2.59478110820055e-05,0.0027757848147302866,9.217382431030273,-0.07061025500297546,-3.357069969177246,0.0,0.0,25.302291870117188,1.0,1.0,999.0,999.0,IMU,,,,,,,,,,,,,
IMU,12082543,1,0.04428786784410477,-4.545895353658125e-05,0.0026565869338810444,9.215873718261719,-0.06799685209989548,-3.3573193550109863,0.0,0.0,25.302227020263672,1.0,1.0,759.0,799.0,IMU,,,,,,,,,,,,,
