mavpackettype,TimeUS,I,GyrX,GyrY,GyrZ,AccX,AccY,AccZ,EG,EA,T,GH,AH,GHz,AHz,Type,Status,GMS,GWk,NSats,HDop,Lat,Lng,Alt,Spd,GCrs,VZ,Yaw,U
IMU,50654626,0,0.0007239187834784389,0.000728022656403482,0.000745333731174469,9.21786117553711,-0.06557302922010422,-3.355518341064453,0.0,0.0,28.10650062561035,1.0,1.0,999.0,999.0,IMU,,,,,,,,,,,,,
IMU,50654626,1,0.0005901040276512504,0.0008352038566954434,0.0007827116060070693,9.215689659118652,-0.06574549525976181,-3.3585798740386963,0.0,0.0,28.10650062561035,1.0,1.0,760.0,799.0,IMU,,,,,,,,,,,,,
IMU,50674626,0,0.000728087208699435,0.000717439572326839,0.0007684395532123744,9.216883659362793,-0.06451737880706787,-3.3564934730529785,0.0,0.0,28.10762596130371,1.0,1.0,999.0,999.0,IMU,,,,,,,,,,,,,
IMU,50674626,1,0.0005817704368382692,0.0007896074675954878,0.0009300411911681294,9.217561721801758,-0.06207664683461189,-3.354381799697876,0.0,0.0,28.10762596130371,1.0,1.0,760.0,799.0,IMU,,,,,,,,,,,,,
IMU,50694626,0,0.0007402232149615884,0.0007446508971042931,0.0007371301762759686,9.217256546020508,-0.06518033146858215,-3.3569157123565674,0.0,0.0,28.108753204345703,1.0,1.0,999.0,999.0,IMU,,,,,,,,,,,,,
IMU,50694626,1,0.0007773704128339887,0.0007125180563889444,0.0007136624190025032,9.216717720031738,-0.0651927962899208,-3.3565471172332764,0.0,0.0,28.108753204345703,1.0,1.0,760.0,799.0,IMU,,,,,,,,,,,,,
IMU,50714626,0,0.000754664943087846,0.0007857948658056557,0.0007146159186959267,9.216874122619629,-0.06535611301660538,-3.3573074340820312,0.0,0.0,28.109878540039062,1.0,1.0,999.0,999.0,IMU,,,,,,,,,,,,,
IMU,50714626,1,0.0009133416460826993,0.0007526492117904127,0.0008051363984122872,9.216300964355469,-0.06416983902454376,-3.3560965061187744,0.0,0.0,28.109878540039062,1.0,1.0,760.0,799.0,IMU,,,,,,,,,,,,,
IMU,50734626,0,0.0007353909313678741,0.0007640355033800006,0.000706752180121839,9.216728210449219,-0.06521844863891602,-3.356287956237793,0.0,0.0,28.111003875732422,1.0,1.0,999.0,999.0,IMU,,,,,,,,,,,,,
IMU,50734626,1,0.0007095999899320304,0.0007168428273871541,0.0007720349240116775,9.215786933898926,-0.06527778506278992,-3.358577251434326,0.0,0.0,28.111003875732422,1.0,1.0,760.0,799.0,IMU,,,,,,,,,,,,,
IMU,50754626,0,0.0007937290938571095,0.0007129483856260777,0.0007254885276779532,9.216693878173828,-0.0647260993719101,-3.356046438217163,0.0,0.0,28.11212921142578,1.0,1.0,999.0,999.0,IMU,,,,,,,,,,,,,
IMU,50754626,1,0.0006626773974858224,0.0007622878183610737,0.0008020034874789417,9.216608047485352,-0.06578441709280014,-3.355839729309082,0.0,0.0,28.11212921142578,1.0,1.0,760.0,799.0,IMU,,,,,,,,,,,,,
IMU,50774626,0,0.0007192968623712659,0.000770572223700583,0.000761066097766161,9.217207908630371,-0.06521918624639511,-3.355207681655884,0.0,0.0,28.11325454711914,1.0,1.0,999.0,999.0,IMU,,,,,,,,,,,,,
IMU,50774626,1,0.0006633671000599861,0.0007097218767739832,0.0008375642937608063,9.218605041503906,-0.06450155377388,-3.358091354370117,0.0,0.0,28.11325454711914,1.0,1.0,760.0,799.0,IMU,,,,,,,,,,,,,
IMU,50794626,0,0.000745621626265347,0.00079521001316607,0.0008144750026986003,9.21755599975586,-0.06528064608573914,-3.355344772338867,0.0,0.0,28.114381790161133,1.0,1.0,999.0,999.0,IMU,,,,,,,,,,,,,
IMU,50794626,1,0.0005122459842823446,0.0009269758011214435,0.0006659111240878701,9.217758178710938,-0.06468237191438675,-3.3569092750549316,0.0,0.0,28.114381790161133,1.0,1.0,760.0,799.0,IMU,,,,,,,,,,,,,
IMU,50814626,0,0.0007567790453322232,0.0007598015363328159,0.0007548654684796929,9.217427253723145,-0.06470869481563568,-3.3559470176696777,0.0,0.0,28.115507125854492,1.0,1.0,999.0,999.0,IMU,,,,,,,,,,,,,
IMU,50814626,1,0.0005914027569815516,0.0007021863129921257,0.0008321531349793077,9.219095230102539,-0.06533261388540268,-3.3568456172943115,0.0,0.0,28.115507125854492,1.0,1.0,760.0,799.0,IMU,,,,,,,,,,,,,
GPS,50814626,0,,,,,,,,,,,,,,GPS,6.0,220511600.0,2412.0,10.0,1.21,-35.3632649,149.1652374,584.85,0.0,359.911865234375,0.0,0.0,1.0
IMU,50834626,0,0.0006891147349961102,0.000766664044931531,0.0007403554045595229,9.216730117797852,-0.06485696882009506,-3.3557145595550537,0.0,0.0,28.11663246154785,1.0,1.0,999.0,999.0,IMU,,,,,,,,,,,,,
IMU,50834626,1,0.0007892025751061738,0.0006578167085535824,0.0008432039758190513,9.217355728149414,-0.06358520686626434,-3.3558120727539062,0.0,0.0,28.11663246154785,1.0,1.0,760.0,799.0,IMU,,,,,,,,,,,,,
IMU,50854626,0,0.0007024012738838792,0.0007420319016091526,0.0007275491952896118,9.216506004333496,-0.06369803100824356,-3.3561789989471436,0.0,0.0,28.117759704589844,1.0,1.0,999.0,999.0,IMU,,,,,,,,,,,,,
IMU,50854626,1,0.0008428645669482648,0.0008643032051622868,0.000660187448374927,9.21786117553711,-0.06467673182487488,-3.3572919368743896,0.0,0.0,28.117759704589844,1.0,1.0,760.0,799.0,IMU,,,,,,,,,,,,,
IMU,50874626,0,0.0007633708883076906,0.000760561553761363,0.0007440439658239484,9.216675758361816,-0.06561136245727539,-3.355642318725586,0.0,0.0,28.118885040283203,1.0,1.0,999.0,999.0,IMU,,,,,,,,,,,,,
IMU,50874626,1,0.0007699236157350242,0.0006791165797039866,0.0008196564158424735,9.21623420715332,-0.06603948771953583,-3.355365753173828,0.0,0.0,28.118885040283203,1.0,1.0,760.0,799.0,IMU,,,,,,,,,,,,,
IMU,50894626,0,0.0007325292681343853,0.0007962716626934707,0.0007419706089422107,9.216497421264648,-0.06506048887968063,-3.356266498565674,0.0,0.0,28.12000846862793,1.0,1.0,999.0,999.0,IMU,,,,,,,,,,,,,
IMU,50894626,1,0.0005779650527983904,0.0006276756175793707,0.0007242755964398384,9.214261054992676,-0.06612439453601837,-3.3583269119262695,0.0,0.0,28.12000846862793,1.0,1.0,760.0,799.0,IMU,,,,,,,,,,,,,
IMU,50914626,0,0.0007709129713475704,0.0007950183353386819,0.000697386683896184,9.217157363891602,-0.06517811119556427,-3.355510950088501,0.0,0.0,28.12113380432129,1.0,1.0,999.0,999.0,IMU,,,,,,,,,,,,,
IMU,50914626,1,0.000583977613132447,0.0009243660606443882,0.0009011193178594112,9.217092514038086,-0.0660252645611763,-3.355342388153076,0.0,0.0,28.12113380432129,1.0,1.0,760.0,799.0,IMU,,,,,,,,,,,,,
IMU,50934626,0,0.0007913026493042707,0.0007347926730290055,0.0007321416051127017,9.216165542602539,-0.06529983133077621,-3.356123685836792,0.0,0.0,28.12225914001465,1.0,1.0,999.0,999.0,IMU,,,,,,,,,,,,,
IMU,50934626,1,0.0007244609296321869,0.0007023246726021171,0.0008986854227259755,9.215930938720703,-0.06717975437641144,-3.354235887527466,0.0,0.0,28.12225914001465,1.0,1.0,760.0,799.0,IMU,,,,,,,,,,,,,
IMU,50954626,0,0.0007566179847344756,0.000714785885065794,0.00066939159296453,9.216796875,-0.06515169143676758,-3.356144905090332,0.0,0.0,28.123384475708008,1.0,1.0,999.0,999.0,IMU,,,,,,,,,,,,,
IMU,50954626,1,0.000668670458253473,0.0006711625028401613,0.0008209799416363239,9.217728614807129,-0.06367450952529907,-3.3543951511383057,0.0,0.0,28.123384475708008,1.0,1.0,760.0,799.0,IMU,,,,,,,,,,,,,
IMU,50974626,0,0.0007663175347261131,0.000746175937820226,0.0007225343724712729,9.216931343078613,-0.0657154768705368,-3.3558483123779297,0.0,0.0,28.124509811401367,1.0,1.0,999.0,999.0,IMU,,,,,,,,,,,,,
IMU,50974626,1,0.0007600313983857632,0.0007932799635455012,0.0007114576292224228,9.218057632446289,-0.06354828923940659,-3.3557491302490234,0.0,0.0,28.124509811401367,1.0,1.0,760.0,799.0,IMU,,,,,,,,,,,,,
IMU,50994626,0,0.0006935629644431174,0.0007391287945210934,0.0007683872245252132,9.217570304870605,-0.06627276539802551,-3.355900764465332,0.0,0.0,28.125635147094727,1.0,1.0,999.0,999.0,IMU,,,,,,,,,,,,,
IMU,50994626,1,0.0006548999226652086,0.0006992964772507548,0.0007732132216915488,9.220646858215332,-0.06347620487213135,-3.3562889099121094,0.0,0.0,28.125635147094727,1.0,1.0,760.0,799.0,IMU,,,,,,,,,,,,,
IMU,51014626,0,0.0007335769478231668,0.0006978897145017982,0.0007567856227979064,9.217382431030273,-0.06533394753932953,-3.3566408157348633,0.0,0.0,28.126758575439453,1.0,1.0,999.0,999.0,IMU,,,,,,,,,,,,,
IMU,51014626,1,0.0007870448753237724,0.0006880557630211115,0.0008179752039723098,9.21572494506836,-0.06459731608629227,-3.356480121612549,0.0,0.0,28.126758575439453,1.0,1.0,760.0,799.0,IMU,,,,,,,,,,,,,
GPS,51014626,0,,,,,,,,,,,,,,GPS,6.0,220511800.0,2412.0,10.0,1.21,-35.3632649,149.1652374,584.85,0.0,359.911865234375,0.0,0.0,1.0
IMU,51034626,0,0.000759476562961936,0.000761358707677573,0.0006694075418636203,9.216208457946777,-0.0655989795923233,-3.3565709590911865,0.0,0.0,28.127883911132812,1.0,1.0,999.0,999.0,IMU,,,,,,,,,,,,,
IMU,51034626,1,0.0009073716355487704,0.0007225693552754819,0.0006967884837649763,9.218460083007812,-0.06658326834440231,-3.356760025024414,0.0,0.0,28.127883911132812,1.0,1.0,760.0,799.0,IMU,,,,,,,,,,,,,
IMU,51054626,0,0.0007467587711289525,0.0007500818464905024,0.0007751516532152891,9.216991424560547,-0.06535663455724716,-3.35530424118042,0.0,0.0,28.129009246826172,1.0,1.0,999.0,999.0,IMU,,,,,,,,,,,,,
IMU,51054626,1,0.0008059380343183875,0.000848152965772897,0.0007533253519795835,9.216129302978516,-0.06419271975755692,-3.354004383087158,0.0,0.0,28.129009246826172,1.0,1.0,760.0,799.0,IMU,,,,,,,,,,,,,
IMU,51074626,0,0.0006968702655285597,0.0007387781515717506,0.0007739835418760777,9.215912818908691,-0.06498133391141891,-3.3558812141418457,0.0,0.0,28.13013458251953,1.0,1.0,999.0,999.0,IMU,,,,,,,,,,,,,
IMU,51074626,1,0.0008276258013211191,0.0008311703568324447,0.000680138822644949,9.21505069732666,-0.0649818703532219,-3.354147434234619,0.0,0.0,28.13013458251953,1.0,1.0,760.0,799.0,IMU,,,,,,,,,,,,,
IMU,51094626,0,0.0006497567519545555,0.0007065907120704651,0.0006777679082006216,9.217734336853027,-0.0644969493150711,-3.3555660247802734,0.0,0.0,28.131258010864258,1.0,1.0,999.0,999.0,IMU,,,,,,,,,,,,,
IMU,51094626,1,0.0005238443263806403,0.0006666095578111708,0.0008223425247706473,9.216658592224121,-0.06561833620071411,-3.353306531906128,0.0,0.0,28.131258010864258,1.0,1.0,760.0,799.0,IMU,,,,,,,,,,,,,
IMU,51114626,0,0.0007548531866632402,0.0007563507533632219,0.0007591436733491719,9.216148376464844,-0.06390640139579773,-3.3560709953308105,0.0,0.0,28.132383346557617,1.0,1.0,999.0,999.0,IMU,,,,,,,,,,,,,
IMU,51114626,1,0.0007886930834501982,0.0008638666477054358,0.0008360000210814178,9.215374946594238,-0.06489424407482147,-3.35626482963562,0.0,0.0,28.132383346557617,1.0,1.0,760.0,799.0,IMU,,,,,,,,,,,,,
IMU,51134626,0,0.0007362061878666282,0.0007159895030781627,0.0008091116906143725,9.216608047485352,-0.06461359560489655,-3.3557794094085693,0.0,0.0,28.133508682250977,1.0,1.0,999.0,999.0,IMU,,,,,,,,,,,,,
IMU,51134626,1,0.0007065711542963982,0.0007529524154961109,0.0006846041069366038,9.217302322387695,-0.06437081098556519,-3.3552589416503906,0.0,0.0,28.133508682250977,1.0,1.0,760.0,799.0,IMU,,,,,,,,,,,,,
IMU,51154626,0,0.0007005489314906299,0.0007239761180244386,0.0007845530635677278,9.216873168945312,-0.06417220830917358,-3.356111526489258,0.0,0.0,28.134632110595703,1.0,1.0,999.0,999.0,IMU,,,,,,,,,,,,,
IMU,51154626,1,0.0007819919846951962,0.0006711886380799115,0.0007922495133243501,9.215239524841309,-0.06474924087524414,-3.3556067943573,0.0,0.0,28.134632110595703,1.0,1.0,760.0,799.0,IMU,,,,,,,,,,,,,
IMU,51174626,0,0.0007126086857169867,0.0007357729482464492,0.000771241495385766,9.217245101928711,-0.06590612232685089,-3.355530261993408,0.0,0.0,28.13575553894043,1.0,1.0,999.0,999.0,IMU,,,,,,,,,,,,,
IMU,51174626,1,0.0008400517399422824,0.00042186080827377737,0.0006017901469022036,9.217194557189941,-0.06723844259977341,-3.355346918106079,0.0,0.0,28.13575553894043,1.0,1.0,760.0,799.0,IMU,,,,,,,,,,,,,
IMU,51194626,0,0.000731653708498925,0.0007679529371671379,0.0007349735824391246,9.21662425994873,-0.06449652463197708,-3.3556833267211914,0.0,0.0,28.13688087463379,1.0,1.0,999.0,999.0,IMU,,,,,,,,,,,,,
IMU,51194626,1,0.0005434479680843651,0.0006793226348236203,0.0009622019715607166,9.216939926147461,-0.06757484376430511,-3.3536314964294434,0.0,0.0,28.13688087463379,1.0,1.0,760.0,799.0,IMU,,,,,,,,,,,,,
IMU,51214626,0,0.000772065541241318,0.0007140554953366518,0.000675099203363061,9.218116760253906,-0.06441203504800797,-3.355701446533203,0.0,0.0,28.13800621032715,1.0,1.0,999.0,999.0,IMU,,,,,,,,,,,,,
IMU,51214626,1,0.0008409299771301448,0.0008132230723276734,0.0006773396162316203,9.218049049377441,-0.06607311964035034,-3.3571910858154297,0.0,0.0,28.13800621032715,1.0,1.0,760.0,799.0,IMU,,,,,,,,,,,,,
GPS,51214626,0,,,,,,,,,,,,,,GPS,6.0,220512000.0,2412.0,10.0,1.21,-35.3632649,149.1652374,584.85,0.0,359.911865234375,0.0,0.0,1.0
IMU,51234626,0,0.0007537174387834966,0.0006930408999323845,0.0007304028840735555,9.217574119567871,-0.06432977318763733,-3.356215715408325,0.0,0.0,28.139129638671875,1.0,1.0,999.0,999.0,IMU,,,,,,,,,,,,,
IMU,51234626,1,0.0007646633894182742,0.0008057176019065082,0.0008239392191171646,9.216094017028809,-0.06502725929021835,-3.3560631275177,0.0,0.0,28.139129638671875,1.0,1.0,760.0,799.0,IMU,,,,,,,,,,,,,
IMU,51254626,0,0.000703250989317894,0.0007216160302050412,0.0007317448616959155,9.217618942260742,-0.06508971750736237,-3.356314182281494,0.0,0.0,28.1402530670166,1.0,1.0,999.0,999.0,IMU,,,,,,,,,,,,,
IMU,51254626,1,0.000857137143611908,0.0008194760303013027,0.0007727889460511506,9.216623306274414,-0.06453847885131836,-3.354949712753296,0.0,0.0,28.1402530670166,1.0,1.0,760.0,799.0,IMU,,,,,,,,,,,,,
IMU,51274626,0,0.000724326353520155,0.0007433533319272101,0.0007879508775658906,9.217401504516602,-0.06556524336338043,-3.355093479156494,0.0,0.0,28.141376495361328,1.0,1.0,999.0,999.0,IMU,,,,,,,,,,,,,
IMU,51274626,1,0.0007222078274935484,0.000781137146987021,0.0007533071911893785,9.218017578125,-0.06627462804317474,-3.356794595718384,0.0,0.0,28.141376495361328,1.0,1.0,760.0,799.0,IMU,,,,,,,,,,,,,
IMU,51294626,0,0.00072933838237077,0.0007499202038161457,0.0007407931261695921,9.2178316116333,-0.06475218385457993,-3.3547894954681396,0.0,0.0,28.142501831054688,1.0,1.0,999.0,999.0,IMU,,,,,,,,,,,,,
IMU,51294626,1,0.0006256624474190176,0.0005702113849110901,0.0006267798016779125,9.217382431030273,-0.06646548211574554,-3.3563499450683594,0.0,0.0,28.142501831054688,1.0,1.0,760.0,799.0,IMU,,,,,,,,,,,,,
IMU,51314626,0,0.0007382493349723518,0.0007122635142877698,0.0007489281706511974,9.21750545501709,-0.06556724011898041,-3.3565876483917236,0.0,0.0,28.143625259399414,1.0,1.0,999.0,999.0,IMU,,,,,,,,,,,,,
IMU,51314626,1,0.0007734758546575904,0.0006619427003897727,0.000820185465272516,9.214740753173828,-0.06487338244915009,-3.3557114601135254,0.0,0.0,28.143625259399414,1.0,1.0,760.0,799.0,IMU,,,,,,,,,,,,,
IMU,51334626,0,0.0007729384233243763,0.000781453971285373,0.0008125588065013289,9.216816902160645,-0.06481839716434479,-3.355985164642334,0.0,0.0,28.14474868774414,1.0,1.0,999.0,999.0,IMU,,,,,,,,,,,,,
IMU,51334626,1,0.0005882413825020194,0.0007370164967142045,0.0007630885229445994,9.216946601867676,-0.06632513552904129,-3.356929302215576,0.0,0.0,28.14474868774414,1.0,1.0,760.0,799.0,IMU,,,,,,,,,,,,,
IMU,51354626,0,0.000703122466802597,0.0007541254162788391,0.0007415043073706329,9.216422080993652,-0.06443014740943909,-3.3555760383605957,0.0,0.0,28.145872116088867,1.0,1.0,999.0,999.0,IMU,,,,,,,,,,,,,
IMU,51354626,1,0.0008133157971315086,0.000753703701775521,0.0007799224695190787,9.218591690063477,-0.06527599692344666,-3.3563473224639893,0.0,0.0,28.145872116088867,1.0,1.0,760.0,799.0,IMU,,,,,,,,,,,,,
IMU,51374626,0,0.0007389629608951509,0.0006775023648515344,0.0007352656102739275,9.215941429138184,-0.06475390493869781,-3.3371877670288086,0.0,0.0,28.146995544433594,1.0,1.0,999.0,999.0,IMU,,,,,,,,,,,,,
IMU,51374626,1,0.000797236047219485,0.0008218965958803892,0.000767075049225241,9.218502044677734,-0.06456151604652405,-3.3263280391693115,0.0,0.0,28.146995544433594,1.0,1.0,760.0,799.0,IMU,,,,,,,,,,,,,
IMU,51394626,0,0.000747290498111397,0.0006104889907874167,0.0007476070895791054,9.217159271240234,-0.06506305932998657,-3.373434066772461,0.0,0.0,28.14811897277832,1.0,1.0,999.0,999.0,IMU,,,,,,,,,,,,,
IMU,51394626,1,0.0007667143363505602,0.0003968185337726027,0.0009244696702808142,9.218982696533203,-0.06623780727386475,-3.380922317504883,0.0,0.0,28.14811897277832,1.0,1.0,760.0,799.0,IMU,,,,,,,,,,,,,
IMU,51414626,0,0.0007478878833353519,0.000876900739967823,0.0007585802813991904,9.21731948852539,-0.06555881351232529,-3.356576442718506,0.0,0.0,28.149242401123047,1.0,1.0,999.0,999.0,IMU,,,,,,,,,,,,,
IMU,51414626,1,0.0005949397454969585,0.0007933195447549224,0.000814961502328515,9.214709281921387,-0.06393709033727646,-3.357978343963623,0.0,0.0,28.149242401123047,1.0,1.0,760.0,799.0,IMU,,,,,,,,,,,,,
GPS,51414626,0,,,,,,,,,,,,,,GPS,6.0,220512200.0,2412.0,10.0,1.21,-35.3632649,149.1652374,584.85,0.0020000000949949026,179.29054260253906,0.0,0.0,1.0
IMU,51434626,0,0.0007578590884804726,0.0007987204589881003,0.0007313875248655677,9.216772079467773,-0.06589148193597794,-3.355490207672119,0.0,0.0,28.150365829467773,1.0,1.0,999.0,999.0,IMU,,,,,,,,,,,,,
IMU,51434626,1,0.000720496813300997,0.0008462068508379161,0.0007379151647910476,9.216958045959473,-0.06611895561218262,-3.3546485900878906,0.0,0.0,28.150365829467773,1.0,1.0,760.0,799.0,IMU,,,,,,,,,,,,,
IMU,51454626,0,0.0007608362939208746,0.0007845572545193136,0.0007612195331603289,9.21741008758545,-0.06517355144023895,-3.355679512023926,0.0,0.0,28.1514892578125,1.0,1.0,999.0,999.0,IMU,,,,,,,,,,,,,
IMU,51454626,1,0.0007086230325512588,0.000704857287928462,0.0008188476203940809,9.21679973602295,-0.0646841749548912,-3.3566014766693115,0.0,0.0,28.1514892578125,1.0,1.0,760.0,799.0,IMU,,,,,,,,,,,,,
IMU,51474626,0,0.0007138059590943158,0.0008051297045312822,0.0007637753151357174,9.218128204345703,-0.06546923518180847,-3.35479736328125,0.0,0.0,28.152612686157227,1.0,1.0,999.0,999.0,IMU,,,,,,,,,,,,,
IMU,51474626,1,0.0006355353980325162,0.0007923532975837588,0.000778834568336606,9.217215538024902,-0.06766382604837418,-3.3567466735839844,0.0,0.0,28.152612686157227,1.0,1.0,760.0,799.0,IMU,,,,,,,,,,,,,
IMU,51494626,0,0.0007363256881944835,0.0008024355047382414,0.0007844829233363271,9.216316223144531,-0.06490789353847504,-3.3556694984436035,0.0,0.0,28.153736114501953,1.0,1.0,999.0,999.0,IMU,,,,,,,,,,,,,
IMU,51494626,1,0.0008438865188509226,0.0008108755573630333,0.0006048731738701463,9.216663360595703,-0.06833863258361816,-3.3561596870422363,0.0,0.0,28.153736114501953,1.0,1.0,760.0,799.0,IMU,,,,,,,,,,,,,
IMU,51514626,0,0.0007658160757273436,0.0007380649913102388,0.000746665638871491,9.216562271118164,-0.06437841802835464,-3.3562662601470947,0.0,0.0,28.154857635498047,1.0,1.0,999.0,999.0,IMU,,,,,,,,,,,,,
IMU,51514626,1,0.0008155852556228638,0.0006566033116541803,0.0006676114862784743,9.21723747253418,-0.06516115367412567,-3.3555028438568115,0.0,0.0,28.154857635498047,1.0,1.0,760.0,799.0,IMU,,,,,,,,,,,,,
IMU,51534626,0,0.0007050306303426623,0.0007409356767311692,0.0007870273548178375,9.216719627380371,-0.06439921259880066,-3.35514497756958,0.0,0.0,28.155981063842773,1.0,1.0,999.0,999.0,IMU,,,,,,,,,,,,,
IMU,51534626,1,0.0008210783125832677,0.0007226263987831771,0.0008433357579633594,9.21728801727295,-0.0636470839381218,-3.3553578853607178,0.0,0.0,28.155981063842773,1.0,1.0,760.0,799.0,IMU,,,,,,,,,,,,,
IMU,51554626,0,0.0007665201555937529,0.0007812983240000904,0.0007398234447464347,9.217546463012695,-0.06399394571781158,-3.355713367462158,0.0,0.0,28.1571044921875,1.0,1.0,999.0,999.0,IMU,,,,,,,,,,,,,
IMU,51554626,1,0.0007177225779742002,0.0009042898891493678,0.0008581385482102633,9.215534210205078,-0.06362154334783554,-3.357081651687622,0.0,0.0,28.1571044921875,1.0,1.0,760.0,799.0,IMU,,,,,,,,,,,,,
IMU,51574626,0,0.0007144052651710808,0.0007495988393202424,0.0007768897921778262,9.216851234436035,-0.06445550173521042,-3.356198787689209,0.0,0.0,28.158227920532227,1.0,1.0,999.0,999.0,IMU,,,,,,,,,,,,,
IMU,51574626,1,0.0007941144867800176,0.0008675694698467851,0.0009632900473661721,9.21519660949707,-0.0654911994934082,-3.3557920455932617,0.0,0.0,28.158227920532227,1.0,1.0,760.0,799.0,IMU,,,,,,,,,,,,,
IMU,51594626,0,0.0007141696405597031,0.0007746015908196568,0.0007878876058384776,9.217487335205078,-0.06483282148838043,-3.357020139694214,0.0,0.0,28.15934944152832,1.0,1.0,999.0,999.0,IMU,,,,,,,,,,,,,
IMU,51594626,1,0.0008455260540358722,0.0008449686574749649,0.0007430805126205087,9.215258598327637,-0.06423108279705048,-3.3540875911712646,0.0,0.0,28.15934944152832,1.0,1.0,760.0,799.0,IMU,,,,,,,,,,,,,
IMU,51614626,0,0.000761469709686935,0.0007259814301505685,0.0007068203995004296,9.21743106842041,-0.06455998122692108,-3.3567280769348145,0.0,0.0,28.160472869873047,1.0,1.0,999.0,999.0,IMU,,,,,,,,,,,,,
IMU,51614626,1,0.0007656933157704771,0.0006224388489499688,0.0007991754682734609,9.21745491027832,-0.0655294805765152,-3.3546652793884277,0.0,0.0,28.160472869873047,1.0,1.0,760.0,799.0,IMU,,,,,,,,,,,,,
GPS,51614626,0,,,,,,,,,,,,,,GPS,6.0,220512400.0,2412.0,10.0,1.21,-35.3632649,149.1652374,584.85,0.0020000000949949026,179.29054260253906,0.0,0.0,1.0
IMU,51634626,0,0.000754857319407165,0.0006997467135079205,0.0007833584095351398,9.216547012329102,-0.06502261757850647,-3.3562378883361816,0.0,0.0,28.16159439086914,1.0,1.0,999.0,999.0,IMU,,,,,,,,,,,,,
IMU,51634626,1,0.0007639614632353187,0.0007001598132774234,0.000743613694794476,9.218647003173828,-0.06322741508483887,-3.3535101413726807,0.0,0.0,28.16159439086914,1.0,1.0,760.0,799.0,IMU,,,,,,,,,,,,,
IMU,51654626,0,0.0007664342992939055,0.0007982480456121266,0.0007594618946313858,9.216889381408691,-0.06423290073871613,-3.355515956878662,0.0,0.0,28.162717819213867,1.0,1.0,999.0,999.0,IMU,,,,,,,,,,,,,
IMU,51654626,1,0.0006308937445282936,0.0007655707886442542,0.0009289743611589074,9.219106674194336,-0.06566566228866577,-3.3575539588928223,0.0,0.0,28.162717819213867,1.0,1.0,760.0,799.0,IMU,,,,,,,,,,,,,
IMU,51674626,0,0.0007008792599663138,0.0008162967278622091,0.0007984979311004281,9.21830940246582,-0.06480181962251663,-3.3556087017059326,0.0,0.0,28.163841247558594,1.0,1.0,999.0,999.0,IMU,,,,,,,,,,,,,
IMU,51674626,1,0.000814621860627085,0.0007116445922292769,0.0007886337116360664,9.21760082244873,-0.06716561317443848,-3.3562755584716797,0.0,0.0,28.163841247558594,1.0,1.0,760.0,799.0,IMU,,,,,,,,,,,,,
IMU,51694626,0,0.0007644242723472416,0.0007285135798156261,0.0007900550263002515,9.21660041809082,-0.06529468297958374,-3.356196880340576,0.0,0.0,28.164962768554688,1.0,1.0,999.0,999.0,IMU,,,,,,,,,,,,,
IMU,51694626,1,0.0007934351451694965,0.0007850776892155409,0.0007532067247666419,9.216078758239746,-0.06608343124389648,-3.3543245792388916,0.0,0.0,28.164962768554688,1.0,1.0,760.0,799.0,IMU,,,,,,,,,,,,,
IMU,51714626,0,0.0007238689577206969,0.0007353918626904488,0.0007677803514525294,9.216962814331055,-0.06416729092597961,-3.3562417030334473,0.0,0.0,28.166086196899414,1.0,1.0,999.0,999.0,IMU,,,,,,,,,,,,,
IMU,51714626,1,0.0007418522145599127,0.0008833028259687126,0.0007813186966814101,9.217052459716797,-0.06452333182096481,-3.356369733810425,0.0,0.0,28.166086196899414,1.0,1.0,760.0,799.0,IMU,,,,,,,,,,,,,
IMU,51734626,0,0.0006973264971747994,0.0007517819758504629,0.0007199590327218175,9.217153549194336,-0.06406362354755402,-3.356113910675049,0.0,0.0,28.167207717895508,1.0,1.0,999.0,999.0,IMU,,,,,,,,,,,,,
IMU,51734626,1,0.000778167275711894,0.0008971248171292245,0.0006926328642293811,9.216169357299805,-0.06321531534194946,-3.354686737060547,0.0,0.0,28.167207717895508,1.0,1.0,760.0,799.0,IMU,,,,,,,,,,,,,
IMU,51754626,0,0.0008049850584939122,0.0007414253777824342,0.0007280240533873439,9.217341423034668,-0.06442152708768845,-3.3555421829223633,0.0,0.0,28.1683292388916,1.0,1.0,999.0,999.0,IMU,,,,,,,,,,,,,
IMU,51754626,1,0.0006058563594706357,0.0009654194582253695,0.0007012681453488767,9.216397285461426,-0.06494918465614319,-3.355624198913574,0.0,0.0,28.1683292388916,1.0,1.0,760.0,799.0,IMU,,,,,,,,,,,,,
IMU,51774626,0,0.000751383020542562,0.0007539569051004946,0.0007918865885585546,9.217087745666504,-0.06498473137617111,-3.3556270599365234,0.0,0.0,28.169452667236328,1.0,1.0,999.0,999.0,IMU,,,,,,,,,,,,,
IMU,51774626,1,0.0005751816788688302,0.0007530698203481734,0.000838593696244061,9.215810775756836,-0.0655941441655159,-3.355625629425049,0.0,0.0,28.169452667236328,1.0,1.0,760.0,799.0,IMU,,,,,,,,,,,,,
IMU,51794626,0,0.0007285659667104483,0.0007508514099754393,0.000759710615966469,9.216398239135742,-0.06482811272144318,-3.3561785221099854,0.0,0.0,28.170574188232422,1.0,1.0,999.0,999.0,IMU,,,,,,,,,,,,,
IMU,51794626,1,0.000683498801663518,0.0005893962224945426,0.0005663518095389009,9.218701362609863,-0.06648515909910202,-3.3542914390563965,0.0,0.0,28.170574188232422,1.0,1.0,760.0,799.0,IMU,,,,,,,,,,,,,
IMU,51814626,0,0.0007567042484879494,0.0007689440972171724,0.0007755359401926398,9.217175483703613,-0.06522897630929947,-3.356454849243164,0.0,0.0,28.171695709228516,1.0,1.0,999.0,999.0,IMU,,,,,,,,,,,,,
IMU,51814626,1,0.0008884972194209695,0.0006203875527717173,0.0006856755935586989,9.217961311340332,-0.06610211730003357,-3.3559699058532715,0.0,0.0,28.171695709228516,1.0,1.0,760.0,799.0,IMU,,,,,,,,,,,,,
GPS,51814626,0,,,,,,,,,,,,,,GPS,6.0,220512600.0,2412.0,10.0,1.21,-35.3632649,149.1652374,584.85,0.0,359.9109802246094,0.0,0.0,1.0
IMU,51834626,0,0.000777114590164274,0.0007399361347779632,0.0007540018996223807,9.217029571533203,-0.06522615253925323,-3.35563588142395,0.0,0.0,28.17281723022461,1.0,1.0,999.0,999.0,IMU,,,,,,,,,,,,,
IMU,51834626,1,0.0008132752263918519,0.0008118945406749845,0.0007636339287273586,9.217964172363281,-0.06603985279798508,-3.354801654815674,0.0,0.0,28.17281723022461,1.0,1.0,760.0,799.0,IMU,,,,,,,,,,,,,
IMU,51854626,0,0.0007112904568202794,0.0007377280853688717,0.000722536351531744,9.217281341552734,-0.06534355878829956,-3.356443166732788,0.0,0.0,28.173938751220703,1.0,1.0,999.0,999.0,IMU,,,,,,,,,,,,,
IMU,51854626,1,0.0006430791690945625,0.0009054004913195968,0.0005813949974253774,9.21470832824707,-0.06646821647882462,-3.3540453910827637,0.0,0.0,28.173938751220703,1.0,1.0,760.0,799.0,IMU,,,,,,,,,,,,,
IMU,51874626,0,0.0007428645039908588,0.000744032789953053,0.0007930495194159448,9.217268943786621,-0.06614121049642563,-3.355595827102661,0.0,0.0,28.175060272216797,1.0,1.0,999.0,999.0,IMU,,,,,,,,,,,,,
IMU,51874626,1,0.000761600851546973,0.0006735672941431403,0.0007714452804066241,9.214204788208008,-0.06559614837169647,-3.3551459312438965,0.0,0.0,28.175060272216797,1.0,1.0,760.0,799.0,IMU,,,,,,,,,,,,,
IMU,51894626,0,0.000772855244576931,0.0007774528348818421,0.000759286165703088,9.215858459472656,-0.06524575501680374,-3.3555896282196045,0.0,0.0,28.17618179321289,1.0,1.0,999.0,999.0,IMU,,,,,,,,,,,,,
IMU,51894626,1,0.0006497296853922307,0.0009425187599845231,0.0009297337383031845,9.216243743896484,-0.06346938014030457,-3.356423854827881,0.0,0.0,28.17618179321289,1.0,1.0,760.0,799.0,IMU,,,,,,,,,,,,,
IMU,51914626,0,0.000771667342633009,0.0007869848632253706,0.0007643918506801128,9.217716217041016,-0.06527428328990936,-3.356001853942871,0.0,0.0,28.177303314208984,1.0,1.0,999.0,999.0,IMU,,,,,,,,,,,,,
IMU,51914626,1,0.000681380508467555,0.000601333100348711,0.0009882828453555703,9.218180656433105,-0.0643850639462471,-3.357781171798706,0.0,0.0,28.177303314208984,1.0,1.0,760.0,799.0,IMU,,,,,,,,,,,,,
IMU,51934626,0,0.0007809573435224593,0.0007413576822727919,0.0007354479748755693,9.218162536621094,-0.06459776312112808,-3.3560333251953125,0.0,0.0,28.178424835205078,1.0,1.0,999.0,999.0,IMU,,,,,,,,,,,,,
IMU,51934626,1,0.0007074281456880271,0.0007401587790809572,0.0008165909675881267,9.215580940246582,-0.06816978752613068,-3.35805082321167,0.0,0.0,28.178424835205078,1.0,1.0,760.0,799.0,IMU,,,,,,,,,,,,,
IMU,51954626,0,0.0007262238068506122,0.000752373191062361,0.0007048326660878956,9.217310905456543,-0.06505464762449265,-3.3565831184387207,0.0,0.0,28.179546356201172,1.0,1.0,999.0,999.0,IMU,,,,,,,,,,,,,
IMU,51954626,1,0.000740467687137425,0.0009071571403183043,0.0008498427923768759,9.216154098510742,-0.06505011022090912,-3.356926918029785,0.0,0.0,28.179546356201172,1.0,1.0,760.0,799.0,IMU,,,,,,,,,,,,,
IMU,51974626,0,0.0007257524994201958,0.0007569290464743972,0.0007616124930791557,9.216364860534668,-0.06404711306095123,-3.3552963733673096,0.0,0.0,28.180667877197266,1.0,1.0,999.0,999.0,IMU,,,,,,,,,,,,,
IMU,51974626,1,0.0007647883612662554,0.0007508097914978862,0.0008192532113753259,9.218327522277832,-0.06422615796327591,-3.354694128036499,0.0,0.0,28.180667877197266,1.0,1.0,760.0,799.0,IMU,,,,,,,,,,,,,
IMU,51994626,0,0.000824427348561585,0.0007832877454347908,0.0007426404627040029,9.216858863830566,-0.06440753489732742,-3.355207920074463,0.0,0.0,28.18178939819336,1.0,1.0,999.0,999.0,IMU,,,,,,,,,,,,,
IMU,51994626,1,0.0008447989821434021,0.0007269827765412629,0.0007227370515465736,9.218873977661133,-0.06415850669145584,-3.3544764518737793,0.0,0.0,28.18178939819336,1.0,1.0,760.0,799.0,IMU,,,,,,,,,,,,,
IMU,52014626,0,0.0007409433019347489,0.0007987167336978018,0.0007817911682650447,9.2166748046875,-0.06555114686489105,-3.35514760017395,0.0,0.0,28.182910919189453,1.0,1.0,999.0,999.0,IMU,,,,,,,,,,,,,
IMU,52014626,1,0.0006394267547875643,0.0007775364210829139,0.0005534905940294266,9.217084884643555,-0.06550084799528122,-3.3561034202575684,0.0,0.0,28.182910919189453,1.0,1.0,760.0,799.0,IMU,,,,,,,,,,,,,
GPS,52014626,0,,,,,,,,,,,,,,GPS,6.0,220512800.0,2412.0,10.0,1.21,-35.3632649,149.1652374,584.85,0.0,359.9109802246094,0.0,0.0,1.0
IMU,52034626,0,0.0007675662054680288,0.0008193009998649359,0.0007808691007085145,9.216545104980469,-0.06577476859092712,-3.354846954345703,0.0,0.0,28.184030532836914,1.0,1.0,999.0,999.0,IMU,,,,,,,,,,,,,
IMU,52034626,1,0.0008593843667767942,0.0006696662167087197,0.0007168982992880046,9.215906143188477,-0.06530849635601044,-3.3561487197875977,0.0,0.0,28.184030532836914,1.0,1.0,760.0,799.0,IMU,,,,,,,,,,,,,
IMU,52054626,0,0.000771363265812397,0.0007357750437222421,0.000828457297757268,9.21782112121582,-0.06588666886091232,-3.3557443618774414,0.0,0.0,28.18515396118164,1.0,1.0,999.0,999.0,IMU,,,,,,,,,,,,,
IMU,52054626,1,0.0009512868709862232,0.0007178988307714462,0.0007546567358076572,9.216480255126953,-0.06473205238580704,-3.3568992614746094,0.0,0.0,28.18515396118164,1.0,1.0,760.0,799.0,IMU,,,,,,,,,,,,,
IMU,52074626,0,0.0007876435411162674,0.0007654631044715643,0.0007821931503713131,9.217062950134277,-0.0649896115064621,-3.355675220489502,0.0,0.0,28.1862735748291,1.0,1.0,999.0,999.0,IMU,,,,,,,,,,,,,
IMU,52074626,1,0.0008629051735624671,0.0006527952500618994,0.0007686471217311919,9.215238571166992,-0.06572339683771133,-3.3539175987243652,0.0,0.0,28.1862735748291,1.0,1.0,760.0,799.0,IMU,,,,,,,,,,,,,
IMU,52094626,0,0.0007740465807728469,0.0007583476835861802,0.0007842910126782954,9.216836929321289,-0.06464540958404541,-3.3546993732452393,0.0,0.0,28.187393188476562,1.0,1.0,999.0,999.0,IMU,,,,,,,,,,,,,
IMU,52094626,1,0.0006440368015319109,0.0007286551408469677,0.0009003482409752905,9.217545509338379,-0.06611187011003494,-3.3587238788604736,0.0,0.0,28.187393188476562,1.0,1.0,760.0,799.0,IMU,,,,,,,,,,,,,
IMU,52114626,0,0.000766483717598021,0.0007828476373106241,0.0007633583154529333,9.217744827270508,-0.06527995318174362,-3.3557796478271484,0.0,0.0,28.18851661682129,1.0,1.0,999.0,999.0,IMU,,,,,,,,,,,,,
IMU,52114626,1,0.0005253709387034178,0.0006642737425863743,0.0007198990788310766,9.2149019241333,-0.06653037667274475,-3.356201171875,0.0,0.0,28.18851661682129,1.0,1.0,760.0,799.0,IMU,,,,,,,,,,,,,
IMU,52134626,0,0.0007511310977861285,0.0007593349437229335,0.0007672415813431144,9.217089653015137,-0.06506514549255371,-3.354980945587158,0.0,0.0,28.18963623046875,1.0,1.0,999.0,999.0,IMU,,,,,,,,,,,,,
IMU,52134626,1,0.0008061047410592437,0.0006452860543504357,0.0007271274225786328,9.217511177062988,-0.06482218205928802,-3.3552000522613525,0.0,0.0,28.18963623046875,1.0,1.0,760.0,799.0,IMU,,,,,,,,,,,,,
IMU,52154626,0,0.0007622434059157968,0.0006997486343607306,0.0007207375601865351,9.217721939086914,-0.06534126400947571,-3.355811357498169,0.0,0.0,28.190757751464844,1.0,1.0,999.0,999.0,IMU,,,,,,,,,,,,,
IMU,52154626,1,0.0007455805316567421,0.0006049811490811408,0.0008559552952647209,9.21951961517334,-0.062284648418426514,-3.357494592666626,0.0,0.0,28.190757751464844,1.0,1.0,760.0,799.0,IMU,,,,,,,,,,,,,
IMU,52174626,0,0.000685611623339355,0.0007233198848553002,0.0007579069933854043,9.216350555419922,-0.06473785638809204,-3.3565211296081543,0.0,0.0,28.191877365112305,1.0,1.0,999.0,999.0,IMU,,,,,,,,,,,,,
IMU,52174626,1,0.000955399009399116,0.0008281393675133586,0.0006907883798703551,9.21804141998291,-0.06529999524354935,-3.3540916442871094,0.0,0.0,28.191877365112305,1.0,1.0,760.0,799.0,IMU,,,,,,,,,,,,,
IMU,52194626,0,0.0007915691239759326,0.0007065590471029282,0.0007224794826470315,9.217227935791016,-0.06419900804758072,-3.3558428287506104,0.0,0.0,28.1929988861084,1.0,1.0,999.0,999.0,IMU,,,,,,,,,,,,,
IMU,52194626,1,0.0006640030187554657,0.0007873308495618403,0.0007413245039060712,9.216070175170898,-0.06630891561508179,-3.3549559116363525,0.0,0.0,28.1929988861084,1.0,1.0,760.0,799.0,IMU,,,,,,,,,,,,,
IMU,52214626,0,0.0007403031922876835,0.00073274876922369,0.0007269133348017931,9.217123031616211,-0.0642932802438736,-3.3557381629943848,0.0,0.0,28.19411849975586,1.0,1.0,999.0,999.0,IMU,,,,,,,,,,,,,
IMU,52214626,1,0.000722952070645988,0.0007558174547739327,0.0006666789995506406,9.215812683105469,-0.06321265548467636,-3.356154203414917,0.0,0.0,28.19411849975586,1.0,1.0,760.0,799.0,IMU,,,,,,,,,,,,,
GPS,52214626,0,,,,,,,,,,,,,,GPS,6.0,220513000.0,2412.0,10.0,1.21,-35.3632649,149.1652374,584.85,0.0,359.9109802246094,0.0,0.0,1.0
IMU,52234626,0,0.0007657741662114859,0.0008002613903954625,0.0007561319507658482,9.217506408691406,-0.06515982747077942,-3.3560197353363037,0.0,0.0,28.19523811340332,1.0,1.0,999.0,999.0,IMU,,,,,,,,,,,,,
IMU,52234626,1,0.0008055118378251791,0.0006659648497588933,0.000612673640716821,9.215693473815918,-0.06242621690034866,-3.3550405502319336,0.0,0.0,28.19523811340332,1.0,1.0,760.0,799.0,IMU,,,,,,,,,,,,,
IMU,52254626,0,0.0007759113796055317,0.0007899652700871229,0.0007932664593681693,9.217836380004883,-0.06479586660861969,-3.3560264110565186,0.0,0.0,28.19635772705078,1.0,1.0,999.0,999.0,IMU,,,,,,,,,,,,,
IMU,52254626,1,0.0006367804598994553,0.0007802492473274469,0.0009132519480772316,9.215246200561523,-0.06637224555015564,-3.35598087310791,0.0,0.0,28.19635772705078,1.0,1.0,760.0,799.0,IMU,,,,,,,,,,,,,
IMU,52274626,0,0.0007222273270599544,0.0007434384897351265,0.0007070089923217893,9.21753215789795,-0.06435318291187286,-3.35587739944458,0.0,0.0,28.197479248046875,1.0,1.0,999.0,999.0,IMU,,,,,,,,,,,,,
IMU,52274626,1,0.0006478670984506607,0.0007479020860046148,0.0006833997322246432,9.217031478881836,-0.06440980732440948,-3.3576505184173584,0.0,0.0,28.197479248046875,1.0,1.0,760.0,799.0,IMU,,,,,,,,,,,,,
IMU,52294626,0,0.0007558490033261478,0.0008388850255869329,0.0006886610062792897,9.217825889587402,-0.0652947649359703,-3.355802059173584,0.0,0.0,28.198598861694336,1.0,1.0,999.0,999.0,IMU,,,,,,,,,,,,,
IMU,52294626,1,0.0008205709746107459,0.0006115607684478164,0.0006834677187725902,9.216636657714844,-0.06435886025428772,-3.35567045211792,0.0,0.0,28.198598861694336,1.0,1.0,760.0,799.0,IMU,,,,,,,,,,,,,
IMU,52314626,0,0.0007702371804043651,0.0007588349981233478,0.0007065908284857869,9.216995239257812,-0.06604379415512085,-3.3561019897460938,0.0,0.0,28.199718475341797,1.0,1.0,999.0,999.0,IMU,,,,,,,,,,,,,
IMU,52314626,1,0.0006410658825188875,0.0006389070185832679,0.000760963826905936,9.215893745422363,-0.06820210814476013,-3.356919050216675,0.0,0.0,28.199718475341797,1.0,1.0,760.0,799.0,IMU,,,,,,,,,,,,,
IMU,52334626,0,0.0007435394218191504,0.0007317035924643278,0.0007458756444975734,9.217517852783203,-0.06420895457267761,-3.3556346893310547,0.0,0.0,28.20083999633789,1.0,1.0,999.0,999.0,IMU,,,,,,,,,,,,,
IMU,52334626,1,0.0006999057368375361,0.0008141851867549121,0.0009734014165587723,9.21784496307373,-0.06491836160421371,-3.356800079345703,0.0,0.0,28.20083999633789,1.0,1.0,760.0,799.0,IMU,,,,,,,,,,,,,
IMU,52354626,0,0.0007222339627332985,0.0007753049139864743,0.0007769275107420981,9.21653938293457,-0.06496423482894897,-3.3560843467712402,0.0,0.0,28.20195960998535,1.0,1.0,999.0,999.0,IMU,,,,,,,,,,,,,
IMU,52354626,1,0.0008171067456714809,0.0008484019781462848,0.0008396953344345093,9.218123435974121,-0.06738965213298798,-3.355591058731079,0.0,0.0,28.20195960998535,1.0,1.0,760.0,799.0,IMU,,,,,,,,,,,,,
IMU,52374626,0,0.0008020245586521924,0.0007244053995236754,0.0007633934146724641,9.216797828674316,-0.06525997817516327,-3.356567859649658,0.0,0.0,28.203079223632812,1.0,1.0,999.0,999.0,IMU,,,,,,,,,,,,,
IMU,52374626,1,0.0007737792911939323,0.0008623925386928022,0.0007574537885375321,9.218008995056152,-0.06788362562656403,-3.354383707046509,0.0,0.0,28.203079223632812,1.0,1.0,760.0,799.0,IMU,,,,,,,,,,,,,
IMU,52394626,0,0.0007520564831793308,0.0007122227689251304,0.0007629720494151115,9.21837329864502,-0.06540315598249435,-3.3563268184661865,0.0,0.0,28.204198837280273,1.0,1.0,999.0,999.0,IMU,,,,,,,,,,,,,
IMU,52394626,1,0.0006980148609727621,0.0008841733797453344,0.0006632094155065715,9.217216491699219,-0.06768648326396942,-3.357361316680908,0.0,0.0,28.204198837280273,1.0,1.0,760.0,799.0,IMU,,,,,,,,,,,,,
IMU,52414626,0,0.0007791356183588505,0.0007038559997454286,0.0007689314661547542,9.217643737792969,-0.06507399678230286,-3.355355978012085,0.0,0.0,28.205318450927734,1.0,1.0,999.0,999.0,IMU,,,,,,,,,,,,,
IMU,52414626,1,0.0006557352608069777,0.0008355329046025872,0.0008192643290385604,9.215728759765625,-0.06815038621425629,-3.356151580810547,0.0,0.0,28.205318450927734,1.0,1.0,760.0,799.0,IMU,,,,,,,,,,,,,
GPS,52414626,0,,,,,,,,,,,,,,GPS,6.0,220513200.0,2412.0,10.0,1.21,-35.3632649,149.1652374,584.85,0.0,359.9109802246094,0.0,0.0,1.0
IMU,52434626,0,0.0007542867679148912,0.0007612166227772832,0.0007840461912564933,9.217024803161621,-0.06438139826059341,-3.356344223022461,0.0,0.0,28.206438064575195,1.0,1.0,999.0,999.0,IMU,,,,,,,,,,,,,
IMU,52434626,1,0.0007102725794538856,0.0006851361831650138,0.0007481977809220552,9.218713760375977,-0.06495648622512817,-3.356508255004883,0.0,0.0,28.206438064575195,1.0,1.0,760.0,799.0,IMU,,,,,,,,,,,,,
IMU,52454626,0,0.0007826992659829557,0.0007322661695070565,0.0007686738390475512,9.217202186584473,-0.06502243131399155,-3.355526924133301,0.0,0.0,28.207557678222656,1.0,1.0,999.0,999.0,IMU,,,,,,,,,,,,,
IMU,52454626,1,0.0008070209296420217,0.0006814601365476847,0.0007117451168596745,9.221094131469727,-0.06494666635990143,-3.3565568923950195,0.0,0.0,28.207557678222656,1.0,1.0,760.0,799.0,IMU,,,,,,,,,,,,,
IMU,52474626,0,0.0007873925496824086,0.0007302732556127012,0.0007431978010572493,9.216768264770508,-0.06484058499336243,-3.3557446002960205,0.0,0.0,28.208677291870117,1.0,1.0,999.0,999.0,IMU,,,,,,,,,,,,,
IMU,52474626,1,0.0009038259158842266,0.0007261826540343463,0.0008357883198186755,9.216777801513672,-0.0651143491268158,-3.354402780532837,0.0,0.0,28.208677291870117,1.0,1.0,760.0,799.0,IMU,,,,,,,,,,,,,
IMU,52494626,0,0.0007997349603101611,0.0007794166449457407,0.0007634315406903625,9.217318534851074,-0.06440480053424835,-3.3561196327209473,0.0,0.0,28.209796905517578,1.0,1.0,999.0,999.0,IMU,,,,,,,,,,,,,
IMU,52494626,1,0.0006365827284753323,0.0007905327947810292,0.0006761681870557368,9.217698097229004,-0.06537295877933502,-3.3567912578582764,0.0,0.0,28.209796905517578,1.0,1.0,760.0,799.0,IMU,,,,,,,,,,,,,
IMU,52514626,0,0.0007758394349366426,0.0007756482227705419,0.0007855931180529296,9.217405319213867,-0.06444685161113739,-3.355893135070801,0.0,0.0,28.210914611816406,1.0,1.0,999.0,999.0,IMU,,,,,,,,,,,,,
IMU,52514626,1,0.0006630838615819812,0.0006887264316901565,0.000768922851420939,9.216691017150879,-0.0657709538936615,-3.356363534927368,0.0,0.0,28.210914611816406,1.0,1.0,760.0,799.0,IMU,,,,,,,,,,,,,
IMU,52534626,0,0.0007628471357747912,0.000764992437325418,0.0007726236945018172,9.216171264648438,-0.06507392227649689,-3.3549675941467285,0.0,0.0,28.212034225463867,1.0,1.0,999.0,999.0,IMU,,,,,,,,,,,,,
IMU,52534626,1,0.0006674325559288263,0.0007745110196992755,0.0008564474410377443,9.218595504760742,-0.06576729565858841,-3.355642795562744,0.0,0.0,28.212034225463867,1.0,1.0,760.0,799.0,IMU,,,,,,,,,,,,,
IMU,52554626,0,0.0007754195248708129,0.0007841785554774106,0.0007414340507239103,9.216297149658203,-0.06439980864524841,-3.3547909259796143,0.0,0.0,28.213153839111328,1.0,1.0,999.0,999.0,IMU,,,,,,,,,,,,,
IMU,52554626,1,0.0006674689939245582,0.0005011563189327717,0.0006979524623602629,9.217976570129395,-0.06421242654323578,-3.3555872440338135,0.0,0.0,28.213153839111328,1.0,1.0,760.0,799.0,IMU,,,,,,,,,,,,,
IMU,52574626,0,0.0007763493922539055,0.000779453432187438,0.0007663120049983263,9.216897964477539,-0.06493465602397919,-3.3542771339416504,0.0,0.0,28.21427345275879,1.0,1.0,999.0,999.0,IMU,,,,,,,,,,,,,
IMU,52574626,1,0.0008968892507255077,0.0006088521331548691,0.0006941243773326278,9.218173027038574,-0.0628267377614975,-3.3565073013305664,0.0,0.0,28.21427345275879,1.0,1.0,760.0,799.0,IMU,,,,,,,,,,,,,
IMU,52594626,0,0.0007778066792525351,0.0007683415897190571,0.0008138093980960548,9.215999603271484,-0.06551331281661987,-3.355180025100708,0.0,0.0,28.215391159057617,1.0,1.0,999.0,999.0,IMU,,,,,,,,,,,,,
IMU,52594626,1,0.0008517177193425596,0.0005635502166114748,0.0007062098593451083,9.216995239257812,-0.06430474668741226,-3.354710817337036,0.0,0.0,28.215391159057617,1.0,1.0,760.0,799.0,IMU,,,,,,,,,,,,,
IMU,52614626,0,0.0007666164892725646,0.0007676592795178294,0.0007789320661686361,9.216453552246094,-0.06547059118747711,-3.356226921081543,0.0,0.0,28.216510772705078,1.0,1.0,999.0,999.0,IMU,,,,,,,,,,,,,
IMU,52614626,1,0.0006632552831433713,0.000736691989004612,0.0007584185223095119,9.215832710266113,-0.0660615861415863,-3.3555357456207275,0.0,0.0,28.216510772705078,1.0,1.0,760.0,799.0,IMU,,,,,,,,,,,,,
GPS,52614626,0,,,,,,,,,,,,,,GPS,6.0,220513400.0,2412.0,10.0,1.21,-35.3632649,149.1652374,584.85,0.0,359.9109802246094,0.0,0.0,1.0
IMU,52634626,0,0.0006931721582077444,0.0007977767963893712,0.0007493151351809502,9.216254234313965,-0.06459136307239532,-3.3564767837524414,0.0,0.0,28.21763038635254,1.0,1.0,999.0,999.0,IMU,,,,,,,,,,,,,
IMU,52634626,1,0.0007777871214784682,0.0005528305773623288,0.0007632405613549054,9.219649314880371,-0.06325094401836395,-3.3571629524230957,0.0,0.0,28.21763038635254,1.0,1.0,760.0,799.0,IMU,,,,,,,,,,,,,
IMU,52654626,0,0.0007323481841012836,0.000768784899264574,0.0007226500893011689,9.21626091003418,-0.06458832323551178,-3.3544273376464844,0.0,0.0,28.218748092651367,1.0,1.0,999.0,999.0,IMU,,,,,,,,,,,,,
IMU,52654626,1,0.0007482102373614907,0.0005663002957589924,0.0006489865481853485,9.218395233154297,-0.06471704691648483,-3.355656623840332,0.0,0.0,28.218748092651367,1.0,1.0,760.0,799.0,IMU,,,,,,,,,,,,,
IMU,52674626,0,0.000727088947314769,0.0008081200066953897,0.0007261657156050205,9.21652603149414,-0.06559456884860992,-3.3556339740753174,0.0,0.0,28.219867706298828,1.0,1.0,999.0,999.0,IMU,,,,,,,,,,,,,
IMU,52674626,1,0.0008787928381934762,0.000772759725805372,0.0006781341508030891,9.217727661132812,-0.06652254611253738,-3.356268882751465,0.0,0.0,28.219867706298828,1.0,1.0,760.0,799.0,IMU,,,,,,,,,,,,,
IMU,52694626,0,0.0007641963893547654,0.000749572878703475,0.0008177119307219982,9.216450691223145,-0.06340894848108292,-3.3554282188415527,0.0,0.0,28.220985412597656,1.0,1.0,999.0,999.0,IMU,,,,,,,,,,,,,
IMU,52694626,1,0.0006675633485428989,0.0008298210450448096,0.0009249889408238232,9.21436882019043,-0.06460290402173996,-3.3583340644836426,0.0,0.0,28.220985412597656,1.0,1.0,760.0,799.0,IMU,,,,,,,,,,,,,
IMU,52714626,0,0.0007696598186157644,0.0007556196651421487,0.0007485956884920597,9.215632438659668,-0.06390602141618729,-3.3557891845703125,0.0,0.0,28.222105026245117,1.0,1.0,999.0,999.0,IMU,,,,,,,,,,,,,
IMU,52714626,1,0.0007536805351264775,0.0007193357450887561,0.0008420547819696367,9.21349811553955,-0.06459130346775055,-3.354684352874756,0.0,0.0,28.222105026245117,1.0,1.0,760.0,799.0,IMU,,,,,,,,,,,,,
IMU,52734626,0,0.0007495963363908231,0.0007008869433775544,0.0007706639007665217,9.216958999633789,-0.06584888696670532,-3.3566598892211914,0.0,0.0,28.223222732543945,1.0,1.0,999.0,999.0,IMU,,,,,,,,,,,,,
IMU,52734626,1,0.0008374803001061082,0.0008517141104675829,0.0009089327650144696,9.218328475952148,-0.06364057213068008,-3.3569798469543457,0.0,0.0,28.223222732543945,1.0,1.0,760.0,799.0,IMU,,,,,,,,,,,,,
IMU,52754626,0,0.0007642468553967774,0.0007487120456062257,0.0007685864111408591,9.216357231140137,-0.0651327520608902,-3.3553600311279297,0.0,0.0,28.224342346191406,1.0,1.0,999.0,999.0,IMU,,,,,,,,,,,,,
IMU,52754626,1,0.0007980720838531852,0.0008824524702504277,0.0008879819652065635,9.219185829162598,-0.06627778708934784,-3.3544106483459473,0.0,0.0,28.224342346191406,1.0,1.0,760.0,799.0,IMU,,,,,,,,,,,,,
IMU,52774626,0,0.0007764951442368329,0.0005102969007566571,0.0007767127244733274,9.217455863952637,-0.06478354334831238,-3.3383450508117676,0.0,0.0,28.225460052490234,1.0,1.0,999.0,999.0,IMU,,,,,,,,,,,,,
IMU,52774626,1,0.0008327211835421622,0.00046219839714467525,0.0006540587055496871,9.215933799743652,-0.06338153779506683,-3.3277015686035156,0.0,0.0,28.225460052490234,1.0,1.0,760.0,799.0,IMU,,,,,,,,,,,,,
IMU,52794626,0,0.0007488583214581013,0.0007621609256602824,0.0007848358945921063,9.21789836883545,-0.06565425544977188,-3.3679914474487305,0.0,0.0,28.226577758789062,1.0,1.0,999.0,999.0,IMU,,,,,,,,,,,,,
IMU,52794626,1,0.0008974965894594789,0.0006231447914615273,0.0006098990561440587,9.215450286865234,-0.06055578589439392,-3.3735690116882324,0.0,0.0,28.226577758789062,1.0,1.0,760.0,799.0,IMU,,,,,,,,,,,,,
IMU,52814626,0,0.0007899034535512328,0.0007944248500280082,0.0007740245200693607,9.218155860900879,-0.06462585926055908,-3.35536527633667,0.0,0.0,28.22769546508789,1.0,1.0,999.0,999.0,IMU,,,,,,,,,,,,,
IMU,52814626,1,0.0007753558456897736,0.0008534085936844349,0.0005216911667957902,9.216886520385742,-0.06434760242700577,-3.3554115295410156,0.0,0.0,28.22769546508789,1.0,1.0,760.0,799.0,IMU,,,,,,,,,,,,,
GPS,52814626,0,,,,,,,,,,,,,,GPS,6.0,220513600.0,2412.0,10.0,1.21,-35.3632649,149.1652374,584.85,0.0,359.9089660644531,0.0,0.0,1.0
IMU,52834626,0,0.0007533612078987062,0.0007855095900595188,0.0007425923831760883,9.216317176818848,-0.06588524580001831,-3.356342077255249,0.0,0.0,28.22881507873535,1.0,1.0,999.0,999.0,IMU,,,,,,,,,,,,,
IMU,52834626,1,0.0007428757380694151,0.0008443378610536456,0.0008356594480574131,9.218462944030762,-0.06555364280939102,-3.356039047241211,0.0,0.0,28.22881507873535,1.0,1.0,760.0,799.0,IMU,,,,,,,,,,,,,
IMU,52854626,0,0.000792998936958611,0.0008036770159378648,0.000803908915258944,9.216646194458008,-0.0647733211517334,-3.355937957763672,0.0,0.0,28.22993278503418,1.0,1.0,999.0,999.0,IMU,,,,,,,,,,,,,
IMU,52854626,1,0.0008444293052889407,0.0007624337449669838,0.0009554062271490693,9.215897560119629,-0.0636066421866417,-3.356461763381958,0.0,0.0,28.22993278503418,1.0,1.0,760.0,799.0,IMU,,,,,,,,,,,,,
IMU,52874626,0,0.0007497830665670335,0.0008254700805991888,0.0007532972376793623,9.216690063476562,-0.06408081948757172,-3.355455160140991,0.0,0.0,28.231050491333008,1.0,1.0,999.0,999.0,IMU,,,,,,,,,,,,,
IMU,52874626,1,0.0008022303227335215,0.0007142598042264581,0.0008068726165220141,9.217714309692383,-0.0655144453048706,-3.354048728942871,0.0,0.0,28.231050491333008,1.0,1.0,760.0,799.0,IMU,,,,,,,,,,,,,
IMU,52894626,0,0.0007624286809004843,0.0007780261221341789,0.0007983067771419883,9.217643737792969,-0.06407491862773895,-3.3551101684570312,0.0,0.0,28.232168197631836,1.0,1.0,999.0,999.0,IMU,,,,,,,,,,,,,
IMU,52894626,1,0.0007319712894968688,0.0007972276653163135,0.0007765879272483289,9.216861724853516,-0.06558478623628616,-3.3550946712493896,0.0,0.0,28.232168197631836,1.0,1.0,760.0,799.0,IMU,,,,,,,,,,,,,
IMU,52914626,0,0.0007913168519735336,0.0007976407650858164,0.0007879551849327981,9.216245651245117,-0.06487436592578888,-3.354893922805786,0.0,0.0,28.233285903930664,1.0,1.0,999.0,999.0,IMU,,,,,,,,,,,,,
IMU,52914626,1,0.000786080549005419,0.0008679608581587672,0.0006296230712905526,9.217147827148438,-0.06633563339710236,-3.3547072410583496,0.0,0.0,28.233285903930664,1.0,1.0,760.0,799.0,IMU,,,,,,,,,,,,,
IMU,52934626,0,0.0007492366130463779,0.0008187413914129138,0.0007765227346681058,9.216960906982422,-0.06707662343978882,-3.3554420471191406,0.0,0.0,28.234403610229492,1.0,1.0,999.0,999.0,IMU,,,,,,,,,,,,,
IMU,52934626,1,0.0007958630449138582,0.0008617137791588902,0.000558170024305582,9.215970993041992,-0.06494037061929703,-3.3592658042907715,0.0,0.0,28.234403610229492,1.0,1.0,760.0,799.0,IMU,,,,,,,,,,,,,
IMU,52954626,0,0.0008012447506189346,0.0007838444435037673,0.0007422048365697265,9.216670989990234,-0.06495533883571625,-3.3555054664611816,0.0,0.0,28.23552131652832,1.0,1.0,999.0,999.0,IMU,,,,,,,,,,,,,
IMU,52954626,1,0.0008774526650086045,0.0007675706874579191,0.0007445148658007383,9.217398643493652,-0.0642693042755127,-3.356877326965332,0.0,0.0,28.23552131652832,1.0,1.0,760.0,799.0,IMU,,,,,,,,,,,,,
IMU,52974626,0,0.0007808664813637733,0.0007818326121196151,0.0007516519399359822,9.217926025390625,-0.06526689231395721,-3.3564112186431885,0.0,0.0,28.23663902282715,1.0,1.0,999.0,999.0,IMU,,,,,,,,,,,,,
IMU,52974626,1,0.000818233413156122,0.0008378427010029554,0.0008790834108367562,9.2155179977417,-0.06834407150745392,-3.3554718494415283,0.0,0.0,28.23663902282715,1.0,1.0,760.0,799.0,IMU,,,,,,,,,,,,,
IMU,52994626,0,0.0007285294705070555,0.0007833485142327845,0.0007540223887190223,9.216689109802246,-0.06526371836662292,-3.356778860092163,0.0,0.0,28.237756729125977,1.0,1.0,999.0,999.0,IMU,,,,,,,,,,,,,
IMU,52994626,1,0.0008017000509425998,0.0008671152754686773,0.0007335123955272138,9.214972496032715,-0.06536764651536942,-3.357081890106201,0.0,0.0,28.237756729125977,1.0,1.0,760.0,799.0,IMU,,,,,,,,,,,,,
IMU,53014626,0,0.0008000422967597842,0.0007944466779008508,0.0007373902481049299,9.217572212219238,-0.06421075761318207,-3.3562798500061035,0.0,0.0,28.238874435424805,1.0,1.0,999.0,999.0,IMU,,,,,,,,,,,,,
IMU,53014626,1,0.0007551771122962236,0.0007523446111008525,0.0008634518017061055,9.216802597045898,-0.06336002796888351,-3.357271671295166,0.0,0.0,28.238874435424805,1.0,1.0,760.0,799.0,IMU,,,,,,,,,,,,,
GPS,53014626,0,,,,,,,,,,,,,,GPS,6.0,220513800.0,2412.0,10.0,1.21,-35.3632649,149.1652374,584.85,0.0,359.90997314453125,0.0,0.0,1.0
IMU,53034626,0,0.0007374472334049642,0.0007727223564870656,0.0007391641847789288,9.216337203979492,-0.06498115509748459,-3.356234550476074,0.0,0.0,28.239992141723633,1.0,1.0,999.0,999.0,IMU,,,,,,,,,,,,,
IMU,53034626,1,0.0008386782137677073,0.000829404394607991,0.0008938403916545212,9.217019081115723,-0.06410935521125793,-3.3564839363098145,0.0,0.0,28.239992141723633,1.0,1.0,760.0,799.0,IMU,,,,,,,,,,,,,
IMU,53054626,0,0.0007376470603048801,0.0007735674735158682,0.0007353599648922682,9.218330383300781,-0.06541502475738525,-3.3560259342193604,0.0,0.0,28.241107940673828,1.0,1.0,999.0,999.0,IMU,,,,,,,,,,,,,
IMU,53054626,1,0.0007946701953187585,0.0008336929604411125,0.0007914234302006662,9.215599060058594,-0.06491273641586304,-3.3565549850463867,0.0,0.0,28.241107940673828,1.0,1.0,760.0,799.0,IMU,,,,,,,,,,,,,
IMU,53074626,0,0.0007954993052408099,0.0008199884905479848,0.0008047609007917345,9.217643737792969,-0.06451544165611267,-3.3565940856933594,0.0,0.0,28.242225646972656,1.0,1.0,999.0,999.0,IMU,,,,,,,,,,,,,
IMU,53074626,1,0.0008902217959985137,0.0008072011987678707,0.0007543767569586635,9.217500686645508,-0.0661262720823288,-3.357572078704834,0.0,0.0,28.242225646972656,1.0,1.0,760.0,799.0,IMU,,,,,,,,,,,,,
IMU,53094626,0,0.0007831632392480969,0.0007788479560986161,0.0007554527837783098,9.216747283935547,-0.06452547758817673,-3.3566746711730957,0.0,0.0,28.243343353271484,1.0,1.0,999.0,999.0,IMU,,,,,,,,,,,,,
IMU,53094626,1,0.0009475899860262871,0.0008728124666959047,0.0006796344532631338,9.218273162841797,-0.06597501784563065,-3.3560473918914795,0.0,0.0,28.243343353271484,1.0,1.0,760.0,799.0,IMU,,,,,,,,,,,,,
IMU,53114626,0,0.0007510067080147564,0.0008008633740246296,0.0007593403570353985,9.216218948364258,-0.06598032265901566,-3.3558928966522217,0.0,0.0,28.244461059570312,1.0,1.0,999.0,999.0,IMU,,,,,,,,,,,,,
IMU,53114626,1,0.0005606504855677485,0.0006099793245084584,0.0008027928415685892,9.218303680419922,-0.06757006794214249,-3.3569176197052,0.0,0.0,28.244461059570312,1.0,1.0,760.0,799.0,IMU,,,,,,,,,,,,,
IMU,53134626,0,0.0007584732957184315,0.0007760613225400448,0.0008254044805653393,9.217116355895996,-0.06634404510259628,-3.3566982746124268,0.0,0.0,28.24557876586914,1.0,1.0,999.0,999.0,IMU,,,,,,,,,,,,,
IMU,53134626,1,0.0006940040038898587,0.0006609187694266438,0.0006826989119872451,9.21556282043457,-0.06622351706027985,-3.3571720123291016,0.0,0.0,28.24557876586914,1.0,1.0,760.0,799.0,IMU,,,,,,,,,,,,,
IMU,53154626,0,0.0007875372539274395,0.0007564799161627889,0.0007795757846906781,9.217446327209473,-0.0647726058959961,-3.3555939197540283,0.0,0.0,28.246692657470703,1.0,1.0,999.0,999.0,IMU,,,,,,,,,,,,,
IMU,53154626,1,0.0007664384320378304,0.0005896420916542411,0.0006736249197274446,9.215354919433594,-0.0659806951880455,-3.356186628341675,0.0,0.0,28.246692657470703,1.0,1.0,760.0,799.0,IMU,,,,,,,,,,,,,
IMU,53174626,0,0.0007956577464938164,0.0007729151984676719,0.0007142527028918266,9.217652320861816,-0.06463631242513657,-3.356175422668457,0.0,0.0,28.24781036376953,1.0,1.0,999.0,999.0,IMU,,,,,,,,,,,,,
IMU,53174626,1,0.0006757697556167841,0.0007323531317524612,0.0006556151784025133,9.218618392944336,-0.06537231802940369,-3.357980489730835,0.0,0.0,28.24781036376953,1.0,1.0,760.0,799.0,IMU,,,,,,,,,,,,,
IMU,53194626,0,0.0007755245896987617,0.0008661561878398061,0.000714068824891001,9.217584609985352,-0.0658615306019783,-3.3567912578582764,0.0,0.0,28.24892807006836,1.0,1.0,999.0,999.0,IMU,,,,,,,,,,,,,
IMU,53194626,1,0.0006315498612821102,0.000714178429916501,0.0006255189655348659,9.21902847290039,-0.06559134274721146,-3.35509991645813,0.0,0.0,28.24892807006836,1.0,1.0,760.0,799.0,IMU,,,,,,,,,,,,,
IMU,53214626,0,0.0007641409174539149,0.0007383819902315736,0.000756502733565867,9.21650218963623,-0.06524889916181564,-3.355496406555176,0.0,0.0,28.250043869018555,1.0,1.0,999.0,999.0,IMU,,,,,,,,,,,,,
IMU,53214626,1,0.0006433441303670406,0.0007364509510807693,0.0006934474222362041,9.215799331665039,-0.06676992774009705,-3.356579065322876,0.0,0.0,28.250043869018555,1.0,1.0,760.0,799.0,IMU,,,,,,,,,,,,,
GPS,53214626,0,,,,,,,,,,,,,,GPS,6.0,220514000.0,2412.0,10.0,1.21,-35.3632649,149.1652374,584.85,0.0,359.9181823730469,0.0,0.0,1.0
IMU,53234626,0,0.0007761578308418393,0.0007632373599335551,0.0007444613729603589,9.216850280761719,-0.06547045707702637,-3.3549156188964844,0.0,0.0,28.251161575317383,1.0,1.0,999.0,999.0,IMU,,,,,,,,,,,,,
IMU,53234626,1,0.0006649601273238659,0.0006743603153154254,0.0009087629150599241,9.215351104736328,-0.0691617801785469,-3.3571271896362305,0.0,0.0,28.251161575317383,1.0,1.0,760.0,799.0,IMU,,,,,,,,,,,,,
IMU,53254626,0,0.0007840783800929785,0.0008349409908987582,0.0007537448545917869,9.216728210449219,-0.06403644382953644,-3.3557090759277344,0.0,0.0,28.252277374267578,1.0,1.0,999.0,999.0,IMU,,,,,,,,,,,,,
IMU,53254626,1,0.0008883078116923571,0.0007083882810547948,0.00074849120574072,9.21595287322998,-0.06459753960371017,-3.356569528579712,0.0,0.0,28.252277374267578,1.0,1.0,760.0,799.0,IMU,,,,,,,,,,,,,
IMU,53274626,0,0.0007497822516597807,0.000776054454036057,0.0007228445028886199,9.216904640197754,-0.06402570754289627,-3.355782985687256,0.0,0.0,28.253395080566406,1.0,1.0,999.0,999.0,IMU,,,,,,,,,,,,,
IMU,53274626,1,0.0008968703332357109,0.0008338260813616216,0.0007429873221553862,9.215911865234375,-0.06645487248897552,-3.354499101638794,0.0,0.0,28.253395080566406,1.0,1.0,760.0,799.0,IMU,,,,,,,,,,,,,
IMU,53294626,0,0.0007710257777944207,0.0008024700218811631,0.0007440019981004298,9.216915130615234,-0.06481240689754486,-3.356351852416992,0.0,0.0,28.2545108795166,1.0,1.0,999.0,999.0,IMU,,,,,,,,,,,,,
IMU,53294626,1,0.0008233829285018146,0.0008395935874432325,0.0007522126543335617,9.216611862182617,-0.06597455590963364,-3.3564200401306152,0.0,0.0,28.2545108795166,1.0,1.0,760.0,799.0,IMU,,,,,,,,,,,,,
IMU,53314626,0,0.000798602297436446,0.0007821859326213598,0.000825351569801569,9.216659545898438,-0.06637092679738998,-3.3553504943847656,0.0,0.0,28.255626678466797,1.0,1.0,999.0,999.0,IMU,,,,,,,,,,,,,
IMU,53314626,1,0.0006680429796688259,0.0008112572832033038,0.0006701789097860456,9.21662712097168,-0.06428167968988419,-3.357393503189087,0.0,0.0,28.255626678466797,1.0,1.0,760.0,799.0,IMU,,,,,,,,,,,,,
IMU,53334626,0,0.000795121246483177,0.0007418353343382478,0.0007640167023055255,9.217418670654297,-0.06586544215679169,-3.3558502197265625,0.0,0.0,28.256742477416992,1.0,1.0,999.0,999.0,IMU,,,,,,,,,,,,,
IMU,53334626,1,0.0007952422020025551,0.0007161896210163832,0.0006543309427797794,9.21786880493164,-0.06333531439304352,-3.3559608459472656,0.0,0.0,28.256742477416992,1.0,1.0,760.0,799.0,IMU,,,,,,,,,,,,,
IMU,53354626,0,0.0008240811293944716,0.0007570157176814973,0.0008075542282313108,9.216751098632812,-0.06474614888429642,-3.3569090366363525,0.0,0.0,28.257858276367188,1.0,1.0,999.0,999.0,IMU,,,,,,,,,,,,,
IMU,53354626,1,0.0008949015173129737,0.000701148877851665,0.0007100189686752856,9.21536922454834,-0.0627896636724472,-3.354926586151123,0.0,0.0,28.257858276367188,1.0,1.0,760.0,799.0,IMU,,,,,,,,,,,,,
IMU,53374626,0,0.0007432862184941769,0.0007480712374672294,0.0007909828564152122,9.217151641845703,-0.06524763256311417,-3.3556745052337646,0.0,0.0,28.258975982666016,1.0,1.0,999.0,999.0,IMU,,,,,,,,,,,,,
IMU,53374626,1,0.0009905045153573155,0.0005583353340625763,0.000783616560511291,9.217100143432617,-0.06400080025196075,-3.3550808429718018,0.0,0.0,28.258975982666016,1.0,1.0,760.0,799.0,IMU,,,,,,,,,,,,,
IMU,53394626,0,0.00075094576459378,0.0004773666150867939,0.0008071596967056394,9.216951370239258,-0.06482260674238205,-3.368027687072754,0.0,0.0,28.26009178161621,1.0,1.0,999.0,999.0,IMU,,,,,,,,,,,,,
IMU,53394626,1,0.0008262660121545196,0.00034100053017027676,0.000764144177082926,9.21621036529541,-0.06456481665372849,-3.3765769004821777,0.0,0.0,28.26009178161621,1.0,1.0,760.0,799.0,IMU,,,,,,,,,,,,,
IMU,53414626,0,0.0007539520156569779,0.0008203941397368908,0.0007214609067887068,9.21664047241211,-0.06587165594100952,-3.362067222595215,0.0,0.0,28.261207580566406,1.0,1.0,999.0,999.0,IMU,,,,,,,,,,,,,
IMU,53414626,1,0.0008416376076638699,0.0008527106256224215,0.0009620407363399863,9.216157913208008,-0.06492398679256439,-3.365262269973755,0.0,0.0,28.261207580566406,1.0,1.0,760.0,799.0,IMU,,,,,,,,,,,,,
GPS,53414626,0,,,,,,,,,,,,,,GPS,6.0,220514200.0,2412.0,10.0,1.21,-35.3632649,149.1652374,584.85,0.0020000000949949026,179.29000854492188,0.0,0.0,1.0
IMU,53434626,0,0.0007720122812315822,0.0008001829264685512,0.000773357052821666,9.216644287109375,-0.06470204144716263,-3.354918956756592,0.0,0.0,28.2623233795166,1.0,1.0,999.0,999.0,IMU,,,,,,,,,,,,,
IMU,53434626,1,0.0007293512462638319,0.0008733330760151148,0.00072798429755494,9.216240882873535,-0.06306330859661102,-3.3549418449401855,0.0,0.0,28.2623233795166,1.0,1.0,760.0,799.0,IMU,,,,,,,,,,,,,
IMU,53454626,0,0.000759137561544776,0.0007914624875411391,0.0007858770550228655,9.217193603515625,-0.06490041315555573,-3.356167793273926,0.0,0.0,28.263439178466797,1.0,1.0,999.0,999.0,IMU,,,,,,,,,,,,,
IMU,53454626,1,0.0008212340762838721,0.0008530423510819674,0.0006522859912365675,9.214679718017578,-0.06441787630319595,-3.355118751525879,0.0,0.0,28.263439178466797,1.0,1.0,760.0,799.0,IMU,,,,,,,,,,,,,
IMU,53474626,0,0.0008357127080671489,0.0008322306675836444,0.0008276570588350296,9.216174125671387,-0.06570334732532501,-3.355475902557373,0.0,0.0,28.264554977416992,1.0,1.0,999.0,999.0,IMU,,,,,,,,,,,,,
IMU,53474626,1,0.0009937731083482504,0.0008014057530090213,0.0008444650447927415,9.21626091003418,-0.06608846783638,-3.3560614585876465,0.0,0.0,28.264554977416992,1.0,1.0,760.0,799.0,IMU,,,,,,,,,,,,,
IMU,53494626,0,0.0007729879580438137,0.0008051093900576234,0.0007737314444966614,9.216143608093262,-0.06427957117557526,-3.3558602333068848,0.0,0.0,28.265670776367188,1.0,1.0,999.0,999.0,IMU,,,,,,,,,,,,,
IMU,53494626,1,0.0009302415419369936,0.0008582861628383398,0.0006802159477956593,9.219412803649902,-0.06338460743427277,-3.3552069664001465,0.0,0.0,28.265670776367188,1.0,1.0,760.0,799.0,IMU,,,,,,,,,,,,,
